~Version Information
 VERS.                2.00:   CWLS log ASCII Standard -VERSION 2.00
 WRAP.                  NO:   One line per frame
~Well Information Block
#MNEM.UNIT              Data                Description
#--------- -------------------------------  -------------------------------
 STRT.F                         7800.0000:   Starting Depth
 STOP.F                        11520.0000:   Ending Depth
 STEP.F                            0.5000:   Level Spacing
 NULL.                          -999.2500:   Absent Value
 COMP.     BOGMC/PIU                     :   Company
 WELL.     KAILASTILA-3                  :   Well
 FLD .     KAILASTILA                    :   Field
 LOC .                                   :   Location
 PROV.                                   :   Province
 SRVC.                                   :   Service Company
 LIC .                                   :   License Number
 DATE.                                   :   Log Date
 UWI .                                   :   Unique Well ID
~Curve Information Block
#MNEM.UNIT       API Codes    Curve Description
#---------    -------------   -------------------------------
 DEPT.F        0   0  0  0:   Primary Index
 GR  .GAPI     0   0  0  0:   Gamma Ray
 CALI.IN       0   0  0  0:   Caliper
 SP  .MV       0   0  0  0:   Spontaneous Potential
 ILD .OHMM     0   0  0  0:   Deep Induction Standard Processed Resistivity
 SFLU.OHMM     0   0  0  0:   SFL Resistivity (Unaveraged)
 MSFL.OHMM     0   0  0  0:   Msfl Resistivity
 DT  .US/F     0   0  0  0:   Delta-T
 RHOB.G/C3     0   0  0  0:   Bulk Density
 DRHO.G/C3     0   0  0  0:   Delta Rho
 PEF .         0   0  0  0:   Photo-Electric Factor
 NPHI.PU       0   0  0  0:   Neutron Porosity
~Parameter Information Block
#MNEM.UNIT              Value             Description
#---------    -------------------------   -------------------------------
 BLI .          11565.000             :   Bottom Log Interval
 BS1 .             17.000             :   Bit Size 1
 BS2 .             12.250             :   Bit Size 2
 BS3 .               .000             :   Bit Size 3
 BSD1.           5102.000             :   Bit Size Depth 1
 BSD2.          11568.000             :   Bit Size Depth 2
 BSD3.               .000             :   Bit Size Depth 3
 CBD1.            632.000             :   Casing Bottom (Driller) 1
 CBD2.           5100.000             :   Casing Bottom (Driller) 2
 CBD3.               .000             :   Casing Bottom (Driller) 3
 CBL1.            634.000             :   Casing Bottom (Logger) 1
 CBL2.           5108.000             :   Casing Bottom (Logger) 2
 CBL3.               .000             :   Casing Bottom (Logger) 3
 CS1 .             13.375             :   Casing Size 1
 CS2 .              9.625             :   Casing Size 2
 CS3 .               .000             :   Casing Size 3
 CW1 .               .000             :   Casing Weight 1
 CW2 .               .000             :   Casing Weight 2
 CW3 .               .000             :   Casing Weight 3
 DAY .        28                      :   Date - Day
 DFD .              9.650             :   Drilling Fluid Density
 DFL .              5.200             :   Drilling Fluid Loss
 DFPH.              9.000             :   Drilling Fluid Ph
 DFT .        GEL-BENEX               :   Drilling Fluid Type
 DFV .             48.000             :   Drilling Fluid Viscosity
 DMF .        DF                      :   Drilling Measured From
 EDF .             72.000             :   Elevation Of Derrick Floor
 EGL .               .000             :   Elevation Of Ground Level
 EKB .             73.000             :   Elevation Of Kelly Bushing
 ENGI.        LEBIOKI#                :   Engineer'S Name
 EPD .               .000             :   Elevation Of Perm. Datum
 LATI.        864,663 Y N             :   Latitude
 LCC .        440                     :   Logging Company Code
 LMF .        DF                      :   Log Measured From
 LONG.        3,223,823 Y E           :   Longitude
 LUL .        PBG                     :   Logging Unit Location
 LUN .        737                     :   Logging Unit Number
 MCSS.        EMT                     :   Mud Cake Sample Source
 MCST.             70.000             :   Mud Cake Sample Temperature
 MFSS.        EMT                     :   Mud Filtrate Sample Source
 MFST.             70.000             :   Mud Filtrate Sample Temperature
 MONT.        12                      :   Date - Month
 MRT .            154.000             :   Maximum Recorded Temperature
 MSS .        FLOWLINE                :   Mud Sample Source
 MST .             68.000             :   Mud Sample Temperature
 NATI.        BANGLADESH              :   Nation
 PDAT.        MSL                     :   Permanent Datum
 R1  .        SELECTED CURVES OVER SELECTED INTERVALS AS PER PETROBANGLA:   Remark Line 1
 R2  .        SPECIFICATIONS DETAILED IN TABLE 6.:   Remark Line 2
 R3  .        DATA TAKEN FROM TAPE 183. THIS TAPE IS A SCHLUMBERGER:   Remark Line 3
 R4  .        EDIT TAPE.              :   Remark Line 4
 R5  .        MSFL TAPE DATA OFFSET FROM H/C LOG, HOWEVER ALL DIGITAL:   Remark Line 5
 R6  .        SOURCES FOUND TO BE IDENTICAL ON SLB EDIT TAPES, CURVE:   Remark Line 6
 R7  .        OUTPUT AS PER EDIT TAPES.:   Remark Line 7
 RMCS.              2.140             :   Resistivity Of Mud Cake Sample
 RMFS.              5.350             :   Resistivity Of Mud Filtrate Sample
 RMS .              3.480             :   Resistivity Of Mud Sample
 RUN .        2                       :   Run Number
 STAT.        BANGLADESH              :   State Or Province
 TCS .        14:00/28                :   Time Circulation Stopped
 TDD .          11568.000             :   Total Depth - Driller
 TDL .          11572.000             :   Total Depth - Logger
 TLAB.        23:29/28                :   Time Logger At Bottom
 TLI .           5108.000             :   Top Log Interval
 TOOL.        COMPOSITE               :   Epl Of All Possible Sensors
 WITN.        ELAHI                   :   Witness' Name
 YEAR.        88                      :   Date - Year
#  Curve Data
~A   DEPT        GR          CALI        SP          ILD         SFLU        MSFL        DT          RHOB        DRHO        PEF         NPHI
# ...
 10516.0000     60.7667     12.6756    -50.5556     10.2101     10.9799     12.0142     77.6000      2.5560      0.0110      3.6267     23.9600
 10516.5000     62.0000     11.9533    -49.9778     10.0135     10.8901     11.7110     73.1333      2.5578      0.0061      3.5200     23.1600
 10517.0000     60.2000     12.4800    -49.8000      9.7507     10.8678     14.0939     74.4222      2.5593      0.0017      3.3911     22.8000
 10517.5000     56.2333     11.9733    -50.2444      9.6414     10.5503     13.6400     78.2667      2.5780      0.0137      3.2133     23.0000
 10518.0000     55.5333     12.0933    -50.3111      9.5043      9.8110     13.2953     76.6222      2.5651      0.0206      3.5156     22.9067
 10518.5000     55.4667     11.9600    -50.4667      9.4655      9.5433     13.6677     74.8000      2.5407      0.0273      3.6044     23.3600
 10519.0000     58.4667     12.1067    -50.3333      9.3499      9.6217     12.9349     77.0667      2.5011      0.0163      3.6667     22.8800
 10519.5000     58.5333     12.0533    -50.4000      9.1325      9.8711     10.4961     73.9556      2.5013      0.0201      3.5333     23.7600
 10520.0000     58.2667     12.1067    -50.2889      9.1137     10.1788     10.9801     74.1555      2.5309      0.0367      3.4622     23.9600
 10520.5000     59.3667     12.1267    -50.2667      9.1324      9.9931     12.0142     79.6667      2.5447      0.0337      3.6533     23.6400
 10521.0000     60.8667     12.3089    -50.4444      9.1418      9.5826     10.9235     76.9778      2.5556      0.0376      3.4356     23.3600
 10521.5000     63.9000     12.3533    -50.7111      9.0580      9.3404     11.5452     74.8667      2.5251      0.0123      3.2889     23.6000
 10522.0000     64.8000     12.2556    -50.7778      9.0580      9.6317     13.1734     76.8667      2.5113      0.0056      2.9600     23.5600
 10522.5000     62.5333     12.2356    -50.9111      9.0580      9.7906     11.4873     75.3778      2.5051      0.0013      3.0489     24.8000
 10523.0000     58.6333     12.5333    -51.2000      8.9109     10.1476     11.1153     74.4889      2.5209      0.0082      3.0489     25.5333
 10523.5000     54.8000     12.2467    -52.2000      8.8745      9.9931     10.9462     77.6667      2.5344      0.0137      3.2400     25.8400
 10524.0000     57.6333     12.3200    -51.1778      8.8201      9.4659      9.9126     75.6000      2.5453      0.0114      3.1467     24.0400
 10524.5000     60.6333     12.2800    -50.7333      8.6680      8.9474      9.6219     79.3111      2.5391      0.0053      3.2311     22.9333
 10525.0000     60.9000     12.3467    -50.9778      8.6238      9.1981     11.5088     79.6889      2.5369      0.0078      3.2311     22.5867
 10525.5000     60.7667     12.1778    -51.4667      8.6238      9.0765     11.2988     76.8000      2.5167      0.0107      3.2178     23.9067
 10526.0000     59.3000     12.0578    -51.1111      8.6238      8.7394     10.7357     79.3111      2.5260      0.0213      3.1556     25.3333
 10526.5000     60.6000     11.7867    -50.9556      8.6947      8.5535      9.6909     79.3555      2.5171      0.0107      3.0978     26.1200
 10527.0000     59.5000     11.8289    -50.8667      8.8473      8.5798      9.9632     76.9111      2.5076      0.0126      3.0000     25.3600
 10527.5000     59.0667     11.9867    -50.9333      8.9109      9.1049     12.0512     76.2000      2.5036      0.0226      3.1333     23.8800
 10528.0000     61.2000     11.6222    -50.7333      9.0395      9.7011      9.8152     77.0000      2.5316      0.0489      3.1067     24.6533
 10528.5000     61.0000     11.3267    -50.8444      9.3404      9.7406      8.8926     73.4667      2.5729      0.0683      3.1467     25.9600
 10529.0000     60.7333     11.7400    -50.8667      9.2642      9.9726     10.2362     78.2000      2.6040      0.0837      2.9733     25.7867
 10529.5000     58.2667     12.0756    -50.8000      9.2547     10.1476     13.7519     74.8667      2.5960      0.0861      2.9822     25.2133
 10530.0000     56.9333     12.1778    -50.8444      9.3595      9.9728     12.0681     76.9333      2.5758      0.0714      3.0933     25.2400
 10530.5000     62.0333     11.8400    -51.3556      9.4171      9.3791      9.8640     74.4000      2.5531      0.0558      3.2133     26.2800
 10531.0000     63.3000     12.2000    -51.7778      9.4848      8.9474      9.6613     77.3333      2.5178      0.0403      3.2844     26.1200
 10531.5000     66.2000     12.6467    -52.8667      9.3595      9.6815     10.7242     76.9556      2.5120      0.0487      3.3333     25.4133
 10532.0000     60.1000     12.4844    -52.0889      9.2547      9.8812      9.8106     75.2000      2.5007      0.0417      3.5511     24.5600
 10532.5000     60.9000     11.8133    -51.4000      9.3022      9.8409      9.9522     76.9111      2.5127      0.0299      3.6667     24.8800
 10533.0000     61.6333     12.0867    -51.4222      9.3117      9.0580      9.3691     77.0222      2.5198      0.0217      3.6178     25.1733
 10533.5000     62.4333     12.1000    -52.0000      9.2832      9.4078     10.9045     76.0667      2.5333      0.0322      3.5156     24.0000
 10534.0000     62.6667     11.9667    -51.7333      9.2832      9.8710     12.0512     76.6000      2.5338      0.0463      3.5244     22.5600
 10534.5000     60.5000     12.1644    -51.8667      9.3022      9.7406     10.6836     76.6000      2.5242      0.0493      3.7600     23.1867
 10535.0000     64.0000     12.2933    -51.8667      9.4848      9.4172      8.8926     73.4000      2.4824      0.0262      3.6711     24.4533
 10535.5000     62.2667     12.2667    -51.7556      9.3499      9.4171      9.8620     76.2000      2.4687      0.0213      3.6400     24.7467
 10536.0000     59.4667     12.1133    -51.7333      9.3595      9.6119      9.9217     75.4667      2.4776      0.0263      3.4222     23.7600
 10536.5000     55.3667     12.2067    -51.4222      9.4171      9.6612      9.3979     74.0000      2.5300      0.0616      3.3467     23.8267
 10537.0000     54.8000     12.1600    -51.5111      9.4558      9.5726      9.4848     76.3333      2.5613      0.0767      3.4667     25.0800
 10537.5000     55.1667     12.2333    -51.6000      9.4268      9.8309      9.3883     73.8667      2.5591      0.0767      3.5111     24.6933
 10538.0000     55.2667     12.0933    -51.6444      9.4558     10.1165     10.0863     75.2000      2.5487      0.0683      3.6133     24.1600
 10538.5000     56.2333     12.1444    -51.9778      9.4558     10.0033     10.9908     77.4000      2.5504      0.0714      3.3333     23.0000
 10539.0000     59.3000     12.4600    -52.0444      9.5043      9.8610     10.0237     73.2667      2.5560      0.0814      3.2578     23.5600
 10539.5000     59.0667     12.3000    -52.5556      9.5922      9.8106     10.4961     74.3778      2.5624      0.0934      3.1600     23.2000
 10540.0000     60.0333     12.2689    -52.5778      9.5824      9.8408      9.7018     76.4667      2.5780      0.1010      3.2667     23.7733
 10540.5000     62.5667     12.1133    -51.0667      9.4848      9.8207      8.9474     75.7333      2.5967      0.1026      3.4222     24.2533
 10541.0000     65.9000     12.6733    -51.2444      9.6119      9.7706      9.6634     75.5333      2.5764      0.0749      3.6311     25.1200
 10541.5000     66.0667     12.5000    -51.4000      9.6119     10.0856     12.2001     75.8667      2.5398      0.0489      3.8000     24.3867
 10542.0000     64.2000     12.9200    -51.1556      9.5238     10.1372     11.2195     76.3111      2.5164      0.0327      3.7956     24.2133
 10542.5000     59.4000     12.5756    -50.8444      9.5140     10.5284     10.0546     73.9333      2.5113      0.0289      3.6533     23.0000
 10543.0000     56.2333     12.4511    -50.8000      9.5726     10.2731     10.4644     76.0667      2.5127      0.0266      3.6400     23.9200
 10543.5000     53.8000     12.8867    -50.8000      9.5238      9.9931     11.1608     78.2667      2.5113      0.0247      3.7067     23.4533
