~Version Information
 VERS.                2.00:   CWLS log ASCII Standard -VERSION 2.00
 WRAP.                  NO:   One line per frame
~Well Information Block
#MNEM.UNIT              Data                Description
#--------- -------------------------------  -------------------------------
 STRT.F                         7800.0000:   Starting Depth
 STOP.F                        11520.0000:   Ending Depth
 STEP.F                            0.5000:   Level Spacing
 NULL.                          -999.2500:   Absent Value
 COMP.     BOGMC/PIU                     :   Company
 WELL.     KAILASTILA-3                  :   Well
 FLD .     KAILASTILA                    :   Field
 LOC .                                   :   Location
 PROV.                                   :   Province
 SRVC.                                   :   Service Company
 LIC .                                   :   License Number
 DATE.                                   :   Log Date
 UWI .                                   :   Unique Well ID
~Curve Information Block
#MNEM.UNIT       API Codes    Curve Description
#---------    -------------   -------------------------------
 DEPT.F        0   0  0  0:   Primary Index
 GR  .GAPI     0   0  0  0:   Gamma Ray
 CALI.IN       0   0  0  0:   Caliper
 SP  .MV       0   0  0  0:   Spontaneous Potential
 ILD .OHMM     0   0  0  0:   Deep Induction Standard Processed Resistivity
 SFLU.OHMM     0   0  0  0:   SFL Resistivity (Unaveraged)
 MSFL.OHMM     0   0  0  0:   Msfl Resistivity
 DT  .US/F     0   0  0  0:   Delta-T
 RHOB.G/C3     0   0  0  0:   Bulk Density
 DRHO.G/C3     0   0  0  0:   Delta Rho
 PEF .         0   0  0  0:   Photo-Electric Factor
 NPHI.PU       0   0  0  0:   Neutron Porosity
~Parameter Information Block
#MNEM.UNIT              Value             Description
#---------    -------------------------   -------------------------------
 BLI .          11565.000             :   Bottom Log Interval
 BS1 .             17.000             :   Bit Size 1
 BS2 .             12.250             :   Bit Size 2
 BS3 .               .000             :   Bit Size 3
 BSD1.           5102.000             :   Bit Size Depth 1
 BSD2.          11568.000             :   Bit Size Depth 2
 BSD3.               .000             :   Bit Size Depth 3
 CBD1.            632.000             :   Casing Bottom (Driller) 1
 CBD2.           5100.000             :   Casing Bottom (Driller) 2
 CBD3.               .000             :   Casing Bottom (Driller) 3
 CBL1.            634.000             :   Casing Bottom (Logger) 1
 CBL2.           5108.000             :   Casing Bottom (Logger) 2
 CBL3.               .000             :   Casing Bottom (Logger) 3
 CS1 .             13.375             :   Casing Size 1
 CS2 .              9.625             :   Casing Size 2
 CS3 .               .000             :   Casing Size 3
 CW1 .               .000             :   Casing Weight 1
 CW2 .               .000             :   Casing Weight 2
 CW3 .               .000             :   Casing Weight 3
 DAY .        28                      :   Date - Day
 DFD .              9.650             :   Drilling Fluid Density
 DFL .              5.200             :   Drilling Fluid Loss
 DFPH.              9.000             :   Drilling Fluid Ph
 DFT .        GEL-BENEX               :   Drilling Fluid Type
 DFV .             48.000             :   Drilling Fluid Viscosity
 DMF .        DF                      :   Drilling Measured From
 EDF .             72.000             :   Elevation Of Derrick Floor
 EGL .               .000             :   Elevation Of Ground Level
 EKB .             73.000             :   Elevation Of Kelly Bushing
 ENGI.        LEBIOKI#                :   Engineer'S Name
 EPD .               .000             :   Elevation Of Perm. Datum
 LATI.        864,663 Y N             :   Latitude
 LCC .        440                     :   Logging Company Code
 LMF .        DF                      :   Log Measured From
 LONG.        3,223,823 Y E           :   Longitude
 LUL .        PBG                     :   Logging Unit Location
 LUN .        737                     :   Logging Unit Number
 MCSS.        EMT                     :   Mud Cake Sample Source
 MCST.             70.000             :   Mud Cake Sample Temperature
 MFSS.        EMT                     :   Mud Filtrate Sample Source
 MFST.             70.000             :   Mud Filtrate Sample Temperature
 MONT.        12                      :   Date - Month
 MRT .            154.000             :   Maximum Recorded Temperature
 MSS .        FLOWLINE                :   Mud Sample Source
 MST .             68.000             :   Mud Sample Temperature
 NATI.        BANGLADESH              :   Nation
 PDAT.        MSL                     :   Permanent Datum
 R1  .        SELECTED CURVES OVER SELECTED INTERVALS AS PER PETROBANGLA:   Remark Line 1
 R2  .        SPECIFICATIONS DETAILED IN TABLE 6.:   Remark Line 2
 R3  .        DATA TAKEN FROM TAPE 183. THIS TAPE IS A SCHLUMBERGER:   Remark Line 3
 R4  .        EDIT TAPE.              :   Remark Line 4
 R5  .        MSFL TAPE DATA OFFSET FROM H/C LOG, HOWEVER ALL DIGITAL:   Remark Line 5
 R6  .        SOURCES FOUND TO BE IDENTICAL ON SLB EDIT TAPES, CURVE:   Remark Line 6
 R7  .        OUTPUT AS PER EDIT TAPES.:   Remark Line 7
 RMCS.              2.140             :   Resistivity Of Mud Cake Sample
 RMFS.              5.350             :   Resistivity Of Mud Filtrate Sample
 RMS .              3.480             :   Resistivity Of Mud Sample
 RUN .        2                       :   Run Number
 STAT.        BANGLADESH              :   State Or Province
 TCS .        14:00/28                :   Time Circulation Stopped
 TDD .          11568.000             :   Total Depth - Driller
 TDL .          11572.000             :   Total Depth - Logger
 TLAB.        23:29/28                :   Time Logger At Bottom
 TLI .           5108.000             :   Top Log Interval
 TOOL.        COMPOSITE               :   Epl Of All Possible Sensors
 WITN.        ELAHI                   :   Witness' Name
 YEAR.        88                      :   Date - Year
#  Curve Data
~A   DEPT        GR          CALI        SP          ILD         SFLU        MSFL        DT          RHOB        DRHO        PEF         NPHI
# ...
  8052.0000     35.1000      8.5667   -107.1333    117.4738     63.0517     43.3985    102.2222      2.3069     -0.0043      2.6444     20.2800
  8052.5000     36.1667      8.5667   -106.4889    119.4071     65.4866     42.7813    101.4667      2.3233     -0.0019      2.7067     20.1200
  8053.0000     37.3000      8.5667   -106.6222    116.7492     68.4320     41.5301    101.3333      2.3193     -0.0019      2.6489     20.4800
  8053.5000     36.8000      8.5667   -107.3333    114.0329     69.6321     42.8253    101.6222      2.3084     -0.0047      2.5556     19.6667
  8054.0000     37.8000      8.5667   -106.9111    116.8694     71.9505     43.4874    102.0222      2.3044     -0.0076      2.5111     18.8000
  8054.5000     36.8000      8.5667   -106.5111    120.1425     73.7389     42.5194    102.4000      2.3031     -0.0150      2.4933     19.1600
  8055.0000     37.4000      8.5667   -106.4222    117.5881     71.9505     41.6578    101.9778      2.3093     -0.0083      2.5156     18.7600
  8055.5000     36.9000      8.5667   -106.1556    122.3773     68.7116     42.7813    102.0222      2.3060     -0.0101      2.5733     18.8933
  8056.0000     41.2000      8.5667   -106.1333    121.6281     70.2764     37.6441    102.8000      2.3093     -0.0023      2.5467     18.4533
  8056.5000     38.9000      8.5667   -106.0000    113.6833     71.0717     41.8759    102.4000      2.3062     -0.0047      2.5600     20.1867
  8057.0000     38.9000      8.5667   -106.3778    116.8694     70.4201     43.0008    102.9333      2.3060     -0.0033      2.5067     20.9200
  8057.5000     35.7000      8.5667   -106.4444    118.5552     72.0238     43.4874    102.6667      2.3078     -0.0042      2.6133     21.6400
  8058.0000     36.6667      8.5667   -106.5111    109.5713     72.8389     43.0006    101.3778      2.3080     -0.0050      2.5778     21.1200
  8058.5000     37.4000      8.5667   -106.7333    113.6876     72.0236     42.3022    101.0222      2.3098     -0.0029      2.5244     20.0267
  8059.0000     36.2333      8.5667   -106.6667    123.8882     70.6366     42.7812    100.9556      2.3140     -0.0021      2.4978     19.5467
  8059.5000     35.6667      8.5667   -107.1556    122.5015     73.5129     43.3541    100.9778      2.3213     -0.0004      2.4667     18.2800
  8060.0000     34.5667      8.5667   -108.7333    120.3888     71.4366     43.0006    101.4000      2.3220     -0.0007      2.5200     18.6000
  8060.5000     34.5000      8.5667   -107.4222    128.1435     71.5829     42.5628    101.2444      2.3207     -0.0002      2.4711     20.1600
  8061.0000     34.6667      8.5667   -106.5333    125.8058     76.5062     42.8249    102.2000      2.3067     -0.0053      2.4578     21.4133
  8061.5000     34.7667      8.5667   -107.0222    121.2553     73.9663     42.8249    101.9111      2.3116     -0.0023      2.3867     23.8800
  8062.0000     35.9000      8.5667   -107.3556    121.6281     73.3629     43.2656    101.6000      2.3133     -0.0029      2.4400     23.7733
  8062.5000     34.6667      8.5667   -107.6000    130.9272     78.8915     44.2959    101.8667      2.3313      0.0060      2.3911     25.7200
  8063.0000     33.7000      8.5667   -107.4889    125.8046     77.6904     43.6658    103.2444      2.3278      0.0022      2.3378     25.1333
  8063.5000     35.0333      8.5667   -107.1778    128.5388     75.2640     43.6211    104.6667      2.3240     -0.0037      2.2800     24.6800
  8064.0000     35.9000      8.5667   -107.0222    131.3298     74.8033     43.7552    105.0444      2.3276     -0.0090      2.3244     22.4533
  8064.5000     35.3000      8.5667   -106.9556    126.7112     71.3644     43.3545    100.6667      2.3360     -0.0089      2.5333     21.2933
  8065.0000     33.6000      8.5667   -106.4000    122.3761     70.2049     40.6471     94.0667      2.3787     -0.0057      2.8133     19.9600
  8065.5000     33.8333      8.5667   -106.4222    130.5259     77.7013     45.9439     88.0222      2.4264     -0.0090      2.8800     19.4800
  8066.0000     32.6333      8.5489   -107.0000    123.1345     84.1453    114.9513     84.0667      2.4356     -0.0077      2.8489     18.0533
  8066.5000     31.5000      8.5467   -107.3556    120.2656     78.8982    135.5287     88.8222      2.3764     -0.0107      2.6711     17.7200
  8067.0000     32.9000      8.5467   -107.6445    120.3888     71.5094     50.8660     95.4667      2.3182     -0.0073      2.6044     18.0667
  8067.5000     35.1333      8.5467   -107.8667    122.0010     74.8796     42.9156    101.5333      2.2920     -0.0120      2.6044     18.7733
  8068.0000     38.1333      8.5467   -107.7778    119.4071     73.0636     40.6894    107.0000      2.3020     -0.0100      2.4933     19.1333
  8068.5000     38.4667      8.5467   -108.4444    120.7590     72.1711     40.1510    105.8000      2.2980     -0.0140      2.5200     19.1333
  8069.0000     39.7000      8.5467   -109.3333    121.2553     72.8389     41.6578    105.8667      2.3107     -0.0117      2.4667     18.9333
  8069.5000     37.3333      8.5467   -107.5111    110.2461     72.1711     40.7306    104.2000      2.3047     -0.0121      2.5911     18.9467
  8070.0000     36.6667      8.5467   -107.3778    115.3257     72.9882     40.7305    104.9778      2.3067     -0.0096      2.5778     19.2400
  8070.5000     35.6000      8.5467   -107.6889    117.5892     73.7389     41.9148    105.1333      2.2973     -0.0079      2.5467     19.1067
  8071.0000     37.9667      8.5467   -108.2667    122.0021     72.9135     41.8717    103.6000      2.3080     -0.0052      2.6311     18.6000
  8071.5000     38.6333      8.5467   -107.7778    122.0010     72.1711     41.4480    103.0444      2.3209     -0.0039      2.6400     18.9467
  8072.0000     38.5667      8.5467   -107.6222    123.5084     72.1711     52.6054    103.0444      2.3229     -0.0010      2.7333     19.8933
  8072.5000     36.5000      8.5467   -107.3556    122.0021     73.5129     44.5839    103.2667      2.3156     -0.0021      2.6667     21.6533
  8073.0000     36.3667      8.5467   -107.2222    114.7352     71.0009     40.3597    104.4889      2.3047     -0.0057      2.8133     21.9333
  8073.5000     37.5000      8.5467   -107.0889    127.3591     66.7724     39.6610    104.7556      2.3073     -0.0081      2.8444     22.4400
  8074.0000     40.9000      8.5467   -106.6445    123.8894     66.1588     39.7016    103.8000      2.3060     -0.0103      2.9467     21.8933
  8074.5000     47.4000      8.5511   -106.4889    123.0040     64.4214     38.5805    104.6222      2.3082     -0.0080      2.8133     25.1467
  8075.0000     51.8333      8.5533   -106.4667    128.1435     66.9119     38.1873    105.6444      2.3127     -0.0053      2.6933     26.6933
  8075.5000     52.5667      8.5533   -106.1556    119.0511     76.1253     39.9472    108.0444      2.3053     -0.0077      2.5911     27.6533
  8076.0000     46.7667      8.5489   -106.0889    106.7132     76.3511     41.6578    108.4889      2.3049     -0.0040      2.5778     25.2933
  8076.5000     42.0667      8.5467   -105.6222     94.1833     69.4983     41.3182    107.1778      2.2960     -0.0117      2.4667     24.0800
  8077.0000     38.5333      8.5467   -105.7333     87.7622     63.0612     40.4813    104.6889      2.3100     -0.0080      2.4311     23.0533
  8077.5000     36.1667      8.5467   -106.8667     75.2070     54.8763     39.4186    100.1111      2.3316     -0.0078      2.3956     22.5200
  8078.0000     33.6333      8.5511   -105.1111     67.4632     45.4184     38.1092     97.6889      2.3536     -0.0029      2.5956     22.2800
  8078.5000     32.9000      8.5533   -104.2000     64.0937     36.8215     37.9938     96.3778      2.3589      0.0013      2.6978     21.3600
  8079.0000     33.8333      8.5533   -104.8667     62.6657     32.4569     31.9912     96.2000      2.3431      0.0020      2.8000     21.1867
  8079.5000     36.7333      8.5489   -105.1778     63.0517     31.8943     35.2937     98.3778      2.3253      0.0000      2.7822     22.0000
