~Version Information
 VERS.                2.00:   CWLS log ASCII Standard -VERSION 2.00
 WRAP.                  NO:   One line per frame
~Well Information Block
#MNEM.UNIT              Data                Description
#--------- -------------------------------  -------------------------------
 STRT.F                         7800.0000:   Starting Depth
 STOP.F                        11520.0000:   Ending Depth
 STEP.F                            0.5000:   Level Spacing
 NULL.                          -999.2500:   Absent Value
 COMP.     BOGMC/PIU                     :   Company
 WELL.     KAILASTILA-3                  :   Well
 FLD .     KAILASTILA                    :   Field
 LOC .                                   :   Location
 PROV.                                   :   Province
 SRVC.                                   :   Service Company
 LIC .                                   :   License Number
 DATE.                                   :   Log Date
 UWI .                                   :   Unique Well ID
~Curve Information Block
#MNEM.UNIT       API Codes    Curve Description
#---------    -------------   -------------------------------
 DEPT.F        0   0  0  0:   Primary Index
 GR  .GAPI     0   0  0  0:   Gamma Ray
 CALI.IN       0   0  0  0:   Caliper
 SP  .MV       0   0  0  0:   Spontaneous Potential
 ILD .OHMM     0   0  0  0:   Deep Induction Standard Processed Resistivity
 SFLU.OHMM     0   0  0  0:   SFL Resistivity (Unaveraged)
 MSFL.OHMM     0   0  0  0:   Msfl Resistivity
 DT  .US/F     0   0  0  0:   Delta-T
 RHOB.G/C3     0   0  0  0:   Bulk Density
 DRHO.G/C3     0   0  0  0:   Delta Rho
 PEF .         0   0  0  0:   Photo-Electric Factor
 NPHI.PU       0   0  0  0:   Neutron Porosity
~Parameter Information Block
#MNEM.UNIT              Value             Description
#---------    -------------------------   -------------------------------
 BLI .          11565.000             :   Bottom Log Interval
 BS1 .             17.000             :   Bit Size 1
 BS2 .             12.250             :   Bit Size 2
 BS3 .               .000             :   Bit Size 3
 BSD1.           5102.000             :   Bit Size Depth 1
 BSD2.          11568.000             :   Bit Size Depth 2
 BSD3.               .000             :   Bit Size Depth 3
 CBD1.            632.000             :   Casing Bottom (Driller) 1
 CBD2.           5100.000             :   Casing Bottom (Driller) 2
 CBD3.               .000             :   Casing Bottom (Driller) 3
 CBL1.            634.000             :   Casing Bottom (Logger) 1
 CBL2.           5108.000             :   Casing Bottom (Logger) 2
 CBL3.               .000             :   Casing Bottom (Logger) 3
 CS1 .             13.375             :   Casing Size 1
 CS2 .              9.625             :   Casing Size 2
 CS3 .               .000             :   Casing Size 3
 CW1 .               .000             :   Casing Weight 1
 CW2 .               .000             :   Casing Weight 2
 CW3 .               .000             :   Casing Weight 3
 DAY .        28                      :   Date - Day
 DFD .              9.650             :   Drilling Fluid Density
 DFL .              5.200             :   Drilling Fluid Loss
 DFPH.              9.000             :   Drilling Fluid Ph
 DFT .        GEL-BENEX               :   Drilling Fluid Type
 DFV .             48.000             :   Drilling Fluid Viscosity
 DMF .        DF                      :   Drilling Measured From
 EDF .             72.000             :   Elevation Of Derrick Floor
 EGL .               .000             :   Elevation Of Ground Level
 EKB .             73.000             :   Elevation Of Kelly Bushing
 ENGI.        LEBIOKI#                :   Engineer'S Name
 EPD .               .000             :   Elevation Of Perm. Datum
 LATI.        864,663 Y N             :   Latitude
 LCC .        440                     :   Logging Company Code
 LMF .        DF                      :   Log Measured From
 LONG.        3,223,823 Y E           :   Longitude
 LUL .        PBG                     :   Logging Unit Location
 LUN .        737                     :   Logging Unit Number
 MCSS.        EMT                     :   Mud Cake Sample Source
 MCST.             70.000             :   Mud Cake Sample Temperature
 MFSS.        EMT                     :   Mud Filtrate Sample Source
 MFST.             70.000             :   Mud Filtrate Sample Temperature
 MONT.        12                      :   Date - Month
 MRT .            154.000             :   Maximum Recorded Temperature
 MSS .        FLOWLINE                :   Mud Sample Source
 MST .             68.000             :   Mud Sample Temperature
 NATI.        BANGLADESH              :   Nation
 PDAT.        MSL                     :   Permanent Datum
 R1  .        SELECTED CURVES OVER SELECTED INTERVALS AS PER PETROBANGLA:   Remark Line 1
 R2  .        SPECIFICATIONS DETAILED IN TABLE 6.:   Remark Line 2
 R3  .        DATA TAKEN FROM TAPE 183. THIS TAPE IS A SCHLUMBERGER:   Remark Line 3
 R4  .        EDIT TAPE.              :   Remark Line 4
 R5  .        MSFL TAPE DATA OFFSET FROM H/C LOG, HOWEVER ALL DIGITAL:   Remark Line 5
 R6  .        SOURCES FOUND TO BE IDENTICAL ON SLB EDIT TAPES, CURVE:   Remark Line 6
 R7  .        OUTPUT AS PER EDIT TAPES.:   Remark Line 7
 RMCS.              2.140             :   Resistivity Of Mud Cake Sample
 RMFS.              5.350             :   Resistivity Of Mud Filtrate Sample
 RMS .              3.480             :   Resistivity Of Mud Sample
 RUN .        2                       :   Run Number
 STAT.        BANGLADESH              :   State Or Province
 TCS .        14:00/28                :   Time Circulation Stopped
 TDD .          11568.000             :   Total Depth - Driller
 TDL .          11572.000             :   Total Depth - Logger
 TLAB.        23:29/28                :   Time Logger At Bottom
 TLI .           5108.000             :   Top Log Interval
 TOOL.        COMPOSITE               :   Epl Of All Possible Sensors
 WITN.        ELAHI                   :   Witness' Name
 YEAR.        88                      :   Date - Year
#  Curve Data
~A   DEPT        GR          CALI        SP          ILD         SFLU        MSFL        DT          RHOB        DRHO        PEF         NPHI
# ...
 10264.0000     48.9000      9.6356    -80.0444     20.3928     17.3499     20.7797     79.1778      2.5167      0.0277      3.1378     21.8267
 10264.5000     44.3333      9.5800    -81.4000     20.9428     20.5519     19.4459     79.4000      2.4858      0.0137      3.3867     19.2133
 10265.0000     41.7000      9.6511    -78.8889     21.4635     27.6601     29.4273     78.6667      2.4740      0.0222      3.5511     15.7600
 10265.5000     38.4000      9.9422    -77.2667     22.4530     37.3272     36.0236     72.5333      2.4967      0.0557      3.7733     13.1867
 10266.0000     34.6333     10.3422    -79.1556     24.6962     41.0232     30.5513     66.0000      2.5527      0.1113      3.4489     12.4400
 10266.5000     34.4667     10.3511    -81.0444     26.4751     34.7722     33.2656     66.5778      2.5344      0.1028      3.2578     13.3067
 10267.0000     40.3000     10.0933    -81.2889     28.6159     28.6808     39.1769     68.2444      2.4662      0.0461      3.1911     15.2533
 10267.5000     46.9000      9.5533    -80.1556     29.2362     28.2169     34.7613     74.5333      2.3940      0.0219      3.5111     15.5600
 10268.0000     42.9333      9.7733    -78.2000     26.7753     49.6697     33.3626     73.0222      2.4382      0.0920      3.7511     12.7733
 10268.5000     36.9333     10.4133    -78.9111     25.2056    102.7298     40.5225     66.3111      2.4804      0.1270      3.8844      9.8667
 10269.0000     32.8000     11.2222    -80.1111     23.8257     96.8638     36.6182     61.8889      2.5233      0.1037      3.4356      9.0800
 10269.5000     35.3000     11.3089    -82.1111     23.1047     56.6717     41.4125     61.8000      2.4844      0.0197      3.0667     11.6400
 10270.0000     34.5667     10.0600    -82.0667     22.5210     35.0454     47.6942     70.7333      2.4531     -0.0040      2.7200     15.6933
 10270.5000     34.6333      9.4422    -80.6445     21.8851     26.4380     53.0921     76.0444      2.4347     -0.0026      2.8756     17.5600
 10271.0000     36.8667      9.2600    -78.7778     20.6030     21.8466     43.6476     79.4444      2.4460      0.0001      3.0489     18.4133
 10271.5000     41.6667      9.3378    -77.9778     19.7626     20.3305     35.6324     80.2889      2.4549      0.0022      3.2000     18.7733
 10272.0000     51.8667      9.4000    -76.3556     18.6179     20.2886     32.1992     77.9333      2.4720      0.0113      3.1067     18.9333
 10272.5000     54.9000      9.4689    -74.9111     18.0178     20.3094     23.5340     78.8667      2.4927      0.0290      3.1422     18.2533
 10273.0000     53.9667      9.6511    -70.7556     17.8890     19.1180     28.4684     77.9333      2.5247      0.0351      3.1689     17.0267
 10273.5000     48.8000      9.8578    -68.3111     18.3151     17.5987     23.0415     76.5556      2.5033      0.0206      3.2533     16.8933
 10274.0000     49.5333      9.9956    -66.5556     18.4467     17.6889     22.6828     74.4667      2.4871      0.0157      3.2222     16.8000
 10274.5000     50.3333     10.2867    -65.9556     18.6174     18.7709     22.6133     66.6667      2.5300      0.0550      3.3911     16.9867
 10275.0000     50.7000     10.9133    -64.8000     18.6747     20.2936     19.7353     65.8667      2.5716      0.0470      3.5911     17.0000
 10275.5000     49.6000     10.8689    -64.0889     19.1195     22.2238     21.2671     64.2000      2.5842      0.0190      3.7733     17.3200
 10276.0000     50.4000     11.4933    -63.4222     19.1586     22.6135     19.7071     64.3111      2.5164      0.0022      3.6800     17.3333
 10276.5000     51.9000     11.0133    -62.7556     19.2569     20.3736     21.8960     66.8444      2.4789      0.0419      3.5111     16.8800
 10277.0000     54.1333      9.9000    -61.9333     19.6350     19.7782     28.6252     72.5333      2.4380      0.0603      3.2933     15.7200
 10277.5000     53.8667     10.0933    -61.9111     19.4749     19.5348     30.5209     69.4222      2.4307      0.0531      3.4933     15.9200
 10278.0000     50.2000     10.7933    -62.4000     18.9831     19.0027     23.8359     65.0444      2.3987      0.0031      3.4000     16.6000
 10278.5000     48.2000     11.3600    -62.2222     18.6366     17.8346     18.8289     64.0000      2.4102     -0.0016      3.5600     16.2400
 10279.0000     47.1000     10.6511    -62.2000     17.7983     17.7069     14.5333     65.2667      2.4500      0.0360      3.4133     17.5867
 10279.5000     52.3000     10.4089    -61.9556     16.5176     17.6345     16.4347     71.6667      2.4916      0.0872      3.6711     20.5200
 10280.0000     51.3667     10.3556    -62.0667     15.5972     17.5987     17.2243     66.2000      2.5260      0.1107      3.6622     21.9867
 10280.5000     51.0000      9.9889    -63.3333     14.8798     15.7931     15.5488     69.1778      2.4769      0.0542      3.5022     22.6800
 10281.0000     46.2000      9.8933    -61.8667     14.1231     13.2576     15.4076     75.6222      2.4564      0.0340      3.2756     21.5200
 10281.5000     47.8333      9.9844    -61.4889     13.4322     12.6969     12.2319     78.1555      2.4447      0.0123      3.2133     22.8933
 10282.0000     48.5667      9.4311    -61.2667     13.1599     13.1330     11.1608     83.1333      2.4564      0.0190      3.6844     23.7200
 10282.5000     51.0333      9.3489    -61.4667     13.1196     12.0774     12.4795     77.0444      2.4724      0.0203      3.9467     23.4800
 10283.0000     53.1000      9.5511    -61.4000     13.4597     10.7902     13.1330     74.4000      2.4953      0.0544      4.1467     24.2133
 10283.5000     54.7333     10.0600    -61.4667     13.9365     11.0135     12.8021     76.8000      2.4773      0.0702      3.9289     24.3600
 10284.0000     56.2000     10.1533    -61.3556     14.6831     11.9921     11.1608     72.4000      2.4907      0.1377      3.8489     24.9333
 10284.5000     56.1000     10.1644    -61.2222     15.2965     14.8579     13.2852     75.0667      2.4820      0.1500      3.6356     23.1733
 10285.0000     54.5000     10.5733    -61.1333     16.1662     18.0593     18.5912     71.6222      2.4869      0.1502      3.4800     21.3867
 10285.5000     58.2000     10.0133    -61.2000     17.7268     21.3793     18.1697     62.4000      2.5076      0.1126      3.5778     20.2133
 10286.0000     56.6000     10.3778    -61.0889     18.9446     23.3900     13.3771     63.6000      2.5138      0.0852      3.6089     19.9733
 10286.5000     56.8000     11.3200    -60.7111     19.8038     22.4751     15.0509     62.5556      2.5220      0.0669      3.6356     20.0400
 10287.0000     52.8000      9.8800    -60.4889     21.0070     19.6953     16.9967     71.0667      2.4620      0.0253      3.4178     20.8800
 10287.5000     53.4000     10.0978    -60.4667     20.3511     19.8166     15.7587     70.5778      2.4747      0.0610      3.4000     20.2400
 10288.0000     52.6000     10.3333    -60.1111     19.6208     19.6350     14.5338     70.4667      2.4647      0.0760      3.4178     19.4800
 10288.5000     49.3333     10.3422    -61.3333     18.0557     20.5927     20.1706     72.6889      2.4669      0.0936      3.6933     20.3333
 10289.0000     48.4000     11.0333    -60.1778     16.8589     19.5247     27.8145     77.5333      2.4533      0.0967      3.7778     21.1467
 10289.5000     50.6333     10.7756    -59.6667     15.7578     18.0183     15.0325     69.4667      2.4580      0.1103      3.8267     21.8800
 10290.0000     53.1667     10.0600    -60.2000     14.8650     16.5349     15.1716     70.6222      2.4513      0.0947      3.7200     22.8667
 10290.5000     54.8667      9.8867    -60.4667     13.9652     15.1580     14.5814     73.0222      2.4113      0.0363      3.8400     26.8800
 10291.0000     55.5000     10.5422    -59.8000     13.3091     13.3125     10.4319     76.2667      2.4253      0.0401      3.8444     25.2400
 10291.5000     57.0000     10.9533    -61.2000     13.0527     11.4170     10.5392     76.0667      2.4458      0.0594      3.7733     25.8800
