~Version Information
 VERS.                2.00:   CWLS log ASCII Standard -VERSION 2.00
 WRAP.                  NO:   One line per frame
~Well Information Block
#MNEM.UNIT              Data                Description
#--------- -------------------------------  -------------------------------
 STRT.F                         7800.0000:   Starting Depth
 STOP.F                        11520.0000:   Ending Depth
 STEP.F                            0.5000:   Level Spacing
 NULL.                          -999.2500:   Absent Value
 COMP.     BOGMC/PIU                     :   Company
 WELL.     KAILASTILA-3                  :   Well
 FLD .     KAILASTILA                    :   Field
 LOC .                                   :   Location
 PROV.                                   :   Province
 SRVC.                                   :   Service Company
 LIC .                                   :   License Number
 DATE.                                   :   Log Date
 UWI .                                   :   Unique Well ID
~Curve Information Block
#MNEM.UNIT       API Codes    Curve Description
#---------    -------------   -------------------------------
 DEPT.F        0   0  0  0:   Primary Index
 GR  .GAPI     0   0  0  0:   Gamma Ray
 CALI.IN       0   0  0  0:   Caliper
 SP  .MV       0   0  0  0:   Spontaneous Potential
 ILD .OHMM     0   0  0  0:   Deep Induction Standard Processed Resistivity
 SFLU.OHMM     0   0  0  0:   SFL Resistivity (Unaveraged)
 MSFL.OHMM     0   0  0  0:   Msfl Resistivity
 DT  .US/F     0   0  0  0:   Delta-T
 RHOB.G/C3     0   0  0  0:   Bulk Density
 DRHO.G/C3     0   0  0  0:   Delta Rho
 PEF .         0   0  0  0:   Photo-Electric Factor
 NPHI.PU       0   0  0  0:   Neutron Porosity
~Parameter Information Block
#MNEM.UNIT              Value             Description
#---------    -------------------------   -------------------------------
 BLI .          11565.000             :   Bottom Log Interval
 BS1 .             17.000             :   Bit Size 1
 BS2 .             12.250             :   Bit Size 2
 BS3 .               .000             :   Bit Size 3
 BSD1.           5102.000             :   Bit Size Depth 1
 BSD2.          11568.000             :   Bit Size Depth 2
 BSD3.               .000             :   Bit Size Depth 3
 CBD1.            632.000             :   Casing Bottom (Driller) 1
 CBD2.           5100.000             :   Casing Bottom (Driller) 2
 CBD3.               .000             :   Casing Bottom (Driller) 3
 CBL1.            634.000             :   Casing Bottom (Logger) 1
 CBL2.           5108.000             :   Casing Bottom (Logger) 2
 CBL3.               .000             :   Casing Bottom (Logger) 3
 CS1 .             13.375             :   Casing Size 1
 CS2 .              9.625             :   Casing Size 2
 CS3 .               .000             :   Casing Size 3
 CW1 .               .000             :   Casing Weight 1
 CW2 .               .000             :   Casing Weight 2
 CW3 .               .000             :   Casing Weight 3
 DAY .        28                      :   Date - Day
 DFD .              9.650             :   Drilling Fluid Density
 DFL .              5.200             :   Drilling Fluid Loss
 DFPH.              9.000             :   Drilling Fluid Ph
 DFT .        GEL-BENEX               :   Drilling Fluid Type
 DFV .             48.000             :   Drilling Fluid Viscosity
 DMF .        DF                      :   Drilling Measured From
 EDF .             72.000             :   Elevation Of Derrick Floor
 EGL .               .000             :   Elevation Of Ground Level
 EKB .             73.000             :   Elevation Of Kelly Bushing
 ENGI.        LEBIOKI#                :   Engineer'S Name
 EPD .               .000             :   Elevation Of Perm. Datum
 LATI.        864,663 Y N             :   Latitude
 LCC .        440                     :   Logging Company Code
 LMF .        DF                      :   Log Measured From
 LONG.        3,223,823 Y E           :   Longitude
 LUL .        PBG                     :   Logging Unit Location
 LUN .        737                     :   Logging Unit Number
 MCSS.        EMT                     :   Mud Cake Sample Source
 MCST.             70.000             :   Mud Cake Sample Temperature
 MFSS.        EMT                     :   Mud Filtrate Sample Source
 MFST.             70.000             :   Mud Filtrate Sample Temperature
 MONT.        12                      :   Date - Month
 MRT .            154.000             :   Maximum Recorded Temperature
 MSS .        FLOWLINE                :   Mud Sample Source
 MST .             68.000             :   Mud Sample Temperature
 NATI.        BANGLADESH              :   Nation
 PDAT.        MSL                     :   Permanent Datum
 R1  .        SELECTED CURVES OVER SELECTED INTERVALS AS PER PETROBANGLA:   Remark Line 1
 R2  .        SPECIFICATIONS DETAILED IN TABLE 6.:   Remark Line 2
 R3  .        DATA TAKEN FROM TAPE 183. THIS TAPE IS A SCHLUMBERGER:   Remark Line 3
 R4  .        EDIT TAPE.              :   Remark Line 4
 R5  .        MSFL TAPE DATA OFFSET FROM H/C LOG, HOWEVER ALL DIGITAL:   Remark Line 5
 R6  .        SOURCES FOUND TO BE IDENTICAL ON SLB EDIT TAPES, CURVE:   Remark Line 6
 R7  .        OUTPUT AS PER EDIT TAPES.:   Remark Line 7
 RMCS.              2.140             :   Resistivity Of Mud Cake Sample
 RMFS.              5.350             :   Resistivity Of Mud Filtrate Sample
 RMS .              3.480             :   Resistivity Of Mud Sample
 RUN .        2                       :   Run Number
 STAT.        BANGLADESH              :   State Or Province
 TCS .        14:00/28                :   Time Circulation Stopped
 TDD .          11568.000             :   Total Depth - Driller
 TDL .          11572.000             :   Total Depth - Logger
 TLAB.        23:29/28                :   Time Logger At Bottom
 TLI .           5108.000             :   Top Log Interval
 TOOL.        COMPOSITE               :   Epl Of All Possible Sensors
 WITN.        ELAHI                   :   Witness' Name
 YEAR.        88                      :   Date - Year
#  Curve Data
~A   DEPT        GR          CALI        SP          ILD         SFLU        MSFL        DT          RHOB        DRHO        PEF         NPHI
# ...
  8528.0000     42.3000      8.5533    -99.4444     19.4549     24.4172     33.6707     88.0667      2.3093      0.0007      2.8267     26.0667
  8528.5000     43.7000      8.5533    -99.7111     19.3953     24.0208     33.5332     88.0667      2.3080     -0.0013      2.8178     25.8133
  8529.0000     43.3000      8.5533    -99.9333     19.4948     23.6064     32.9549     88.0222      2.3093      0.0037      2.7067     24.8000
  8529.5000     43.4333      8.5711    -99.8667     19.5148     23.9962     32.1882     87.8667      2.3067     -0.0009      2.7511     25.5733
  8530.0000     42.6000      8.5733   -100.0000     19.5148     24.0946     32.6194     87.9778      2.3133     -0.0044      2.8578     26.8400
  8530.5000     43.6000      8.5489   -101.8000     19.5148     24.3923     33.4992     88.4222      2.3111     -0.0128      2.8444     26.5467
  8531.0000     42.4333      8.5422   -100.2889     19.8383     24.4172     34.0873     88.7333      2.3038     -0.0163      2.7733     26.5200
  8531.5000     41.2333      8.5200    -99.3333     19.9184     24.6937     37.1485     88.5333      2.2916     -0.0183      2.6000     26.4400
  8532.0000     37.5667      8.5244    -99.7778     19.8166     24.8712     37.0710     88.5333      2.2907     -0.0138      2.6578     26.7067
  8532.5000     35.7333      8.5311   -100.1111     19.9183     24.7189     34.6495     88.2444      2.2924     -0.0110      2.7822     26.6400
  8533.0000     34.9000      8.5444   -100.1556     20.0617     25.1271     35.3299     88.1555      2.2953     -0.0077      2.8978     26.0133
  8533.5000     33.9333      8.5422   -100.0444     19.7576     25.6466     35.9498     88.1778      2.2887     -0.0097      2.8889     25.7467
  8534.0000     32.0000      8.5333   -100.0000     20.1479     25.4115     35.6202     88.2000      2.2900     -0.0042      2.6622     25.6800
  8534.5000     28.4000      8.5289    -99.7556     20.4345     26.2040     35.8030     88.0000      2.2891     -0.0012      2.6267     25.6667
  8535.0000     28.0000      8.5156    -99.6222     20.4345     26.2843     36.5059     88.2444      2.2933     -0.0002      2.6578     24.7067
  8535.5000     30.7000      8.5000    -99.6000     20.4345     26.2306     36.0236     88.2000      2.2827     -0.0070      2.7867     23.9200
  8536.0000     35.4000      8.5000    -99.9778     20.6025     25.7255     35.8764     88.2000      2.2836     -0.0057      2.8400     24.3200
  8536.5000     39.2000      8.5044   -100.0000     20.5814     25.9370     35.8396     88.1555      2.2760     -0.0090      2.7422     24.2667
  8537.0000     38.2000      8.5111   -100.0000     20.5183     25.9635     35.8396     87.6667      2.2820     -0.0098      2.6622     24.8800
  8537.5000     38.4333      8.5133   -100.2222     20.4345     26.0167     36.0604     87.9778      2.2811     -0.0150      2.6000     24.8667
  8538.0000     36.4000      8.5133   -100.8667     20.5393     26.1770     35.9867     88.0000      2.2880     -0.0119      2.6711     26.1200
  8538.5000     37.3000      8.5133   -100.7111     20.5603     26.5004     35.8764     88.0000      2.2909     -0.0118      2.6933     26.3467
  8539.0000     35.4000      8.5133   -101.4444     20.4973     26.5275     35.3298     88.0000      2.3000     -0.0080      2.5778     26.2667
  8539.5000     37.9000      8.5133   -102.4000     20.5393     26.4733     35.2937     88.0000      2.2987     -0.0110      2.4222     24.6267
  8540.0000     39.7000      8.5133   -100.6445     20.5183     26.2306     35.7298     88.0444      2.3004     -0.0086      2.4133     24.5067
  8540.5000     38.9667      8.5133   -100.4000     20.3302     26.1502     35.3298     88.4222      2.3042     -0.0063      2.4489     24.6133
  8541.0000     36.3333      8.5133   -100.5556     20.1232     25.6205     35.1136     88.6444      2.3047     -0.0073      2.5244     24.1600
  8541.5000     35.6333      8.5244   -101.3333     20.1851     25.0244     34.6850     88.8667      2.3038     -0.0066      2.5511     25.1600
  8542.0000     38.7000      8.5311   -101.0444     20.1232     25.5943     34.6495     88.8222      2.2947     -0.0107      2.6578     24.2800
  8542.5000     38.5667      8.5333   -100.8889     20.1232     25.9370     34.8629     88.8000      2.2964     -0.0064      2.7378     24.8800
  8543.0000     39.8000      8.5333   -100.7556     20.1232     25.9635     34.8629     88.8000      2.2962     -0.0053      2.8089     24.6800
  8543.5000     39.1000      8.5400   -100.6222     19.8783     26.2037     34.7916     88.9333      2.2924     -0.0082      2.8000     24.9067
  8544.0000     40.5000      8.5333   -100.3556     19.6551     25.6205     34.5787     88.8222      2.2893     -0.0120      2.8756     25.8400
  8544.5000     40.2000      8.5333   -100.3333     19.3359     25.4896     34.5433     88.8000      2.2960     -0.0121      2.8667     26.0533
  8545.0000     41.6000      8.5333   -100.2667     19.6953     25.9902     35.2216     88.3778      2.2971     -0.0096      2.8578     26.3333
  8545.5000     41.7667      8.5400   -100.6222     19.4351     26.0700     35.3660     88.3333      2.3020     -0.0081      2.6844     25.3733
  8546.0000     42.5000      8.5333   -100.9111     19.3359     25.3338     35.9868     88.3778      2.3011     -0.0076      2.6444     25.0400
  8546.5000     41.0333      8.5333   -101.0667     19.3359     25.1785     36.0973     88.5778      2.3111     -0.0024      2.6000     25.2400
  8547.0000     40.5667      8.5444   -101.1111     19.1782     25.5680     34.4732     88.9556      2.3116     -0.0008      2.6844     25.0000
  8547.5000     39.4000      8.5422   -101.4667     19.0413     25.2302     34.3318     89.2444      2.3100     -0.0001      2.7200     25.8400
  8548.0000     38.3667      8.5289   -102.8667     19.0024     25.1785     34.2266     89.2222      2.3118      0.0000      2.6978     25.5867
  8548.5000     36.5667      8.5133   -101.0000     18.8861     25.6992     34.6141     89.1333      2.3120     -0.0004      2.6800     25.3600
  8549.0000     36.2000      8.5089   -100.2667     18.6175     25.6729     35.2937     89.3333      2.3153      0.0030      2.6889     24.8800
  8549.5000     36.8333      8.5022   -100.5111     18.3339     25.2302     34.9701     89.0667      2.3136      0.0006      2.7867     24.6933
  8550.0000     39.7333      8.4800   -100.8667     18.2402     24.7189     34.9701     89.2000      2.3116     -0.0026      2.7022     24.5733
  8550.5000     40.5000      8.4800   -100.3778     18.2963     24.9988     35.1495     89.0667      2.3060     -0.0079      2.6311     23.7600
  8551.0000     41.9000      8.4800   -100.1333     18.0915     25.1785     35.2576     89.0667      2.3087     -0.0077      2.6178     25.0400
  8551.5000     40.8333      8.4800   -100.2000     18.0730     24.7189     35.8030     89.0667      2.3207      0.0000      2.5733     24.7600
  8552.0000     39.1000      8.4800    -99.8000     18.0730     24.9222     35.7664     89.5111      2.3140     -0.0027      2.6667     25.0400
  8552.5000     39.6000      8.4756    -99.2667     17.6347     25.4115     35.6567     89.5333      2.3167     -0.0013      2.6133     24.4533
  8553.0000     41.5333      8.4733    -98.6667     17.3126     24.9989     35.5474     89.5778      2.3100     -0.0064      2.6933     23.2533
  8553.5000     44.3000      8.4733    -99.2667     17.4550     24.3924     35.3298     89.8444      2.3071     -0.0074      2.6311     22.5600
  8554.0000     41.8000      8.4733    -98.7778     17.5086     23.8738     34.7563     89.8889      2.3002     -0.0121      2.6267     23.0667
  8554.5000     41.4000      8.4733    -98.6222     17.9995     23.2945     33.7403     89.4000      2.2927     -0.0150      2.7244     23.4267
  8555.0000     39.4000      8.4733    -98.1111     18.9057     23.3423     32.4863     90.5333      2.2960     -0.0123      2.8133     24.2000
  8555.5000     40.0333      8.4778    -97.8000     19.1586     24.1936     32.3864     90.0889      2.2942     -0.0076      2.7333     24.7733
