~Version Information
 VERS.                2.00:   CWLS log ASCII Standard -VERSION 2.00
 WRAP.                  NO:   One line per frame
~Well Information Block
#MNEM.UNIT              Data                Description
#--------- -------------------------------  -------------------------------
 STRT.F                         7800.0000:   Starting Depth
 STOP.F                        11520.0000:   Ending Depth
 STEP.F                            0.5000:   Level Spacing
 NULL.                          -999.2500:   Absent Value
 COMP.     BOGMC/PIU                     :   Company
 WELL.     KAILASTILA-3                  :   Well
 FLD .     KAILASTILA                    :   Field
 LOC .                                   :   Location
 PROV.                                   :   Province
 SRVC.                                   :   Service Company
 LIC .                                   :   License Number
 DATE.                                   :   Log Date
 UWI .                                   :   Unique Well ID
~Curve Information Block
#MNEM.UNIT       API Codes    Curve Description
#---------    -------------   -------------------------------
 DEPT.F        0   0  0  0:   Primary Index
 GR  .GAPI     0   0  0  0:   Gamma Ray
 CALI.IN       0   0  0  0:   Caliper
 SP  .MV       0   0  0  0:   Spontaneous Potential
 ILD .OHMM     0   0  0  0:   Deep Induction Standard Processed Resistivity
 SFLU.OHMM     0   0  0  0:   SFL Resistivity (Unaveraged)
 MSFL.OHMM     0   0  0  0:   Msfl Resistivity
 DT  .US/F     0   0  0  0:   Delta-T
 RHOB.G/C3     0   0  0  0:   Bulk Density
 DRHO.G/C3     0   0  0  0:   Delta Rho
 PEF .         0   0  0  0:   Photo-Electric Factor
 NPHI.PU       0   0  0  0:   Neutron Porosity
~Parameter Information Block
#MNEM.UNIT              Value             Description
#---------    -------------------------   -------------------------------
 BLI .          11565.000             :   Bottom Log Interval
 BS1 .             17.000             :   Bit Size 1
 BS2 .             12.250             :   Bit Size 2
 BS3 .               .000             :   Bit Size 3
 BSD1.           5102.000             :   Bit Size Depth 1
 BSD2.          11568.000             :   Bit Size Depth 2
 BSD3.               .000             :   Bit Size Depth 3
 CBD1.            632.000             :   Casing Bottom (Driller) 1
 CBD2.           5100.000             :   Casing Bottom (Driller) 2
 CBD3.               .000             :   Casing Bottom (Driller) 3
 CBL1.            634.000             :   Casing Bottom (Logger) 1
 CBL2.           5108.000             :   Casing Bottom (Logger) 2
 CBL3.               .000             :   Casing Bottom (Logger) 3
 CS1 .             13.375             :   Casing Size 1
 CS2 .              9.625             :   Casing Size 2
 CS3 .               .000             :   Casing Size 3
 CW1 .               .000             :   Casing Weight 1
 CW2 .               .000             :   Casing Weight 2
 CW3 .               .000             :   Casing Weight 3
 DAY .        28                      :   Date - Day
 DFD .              9.650             :   Drilling Fluid Density
 DFL .              5.200             :   Drilling Fluid Loss
 DFPH.              9.000             :   Drilling Fluid Ph
 DFT .        GEL-BENEX               :   Drilling Fluid Type
 DFV .             48.000             :   Drilling Fluid Viscosity
 DMF .        DF                      :   Drilling Measured From
 EDF .             72.000             :   Elevation Of Derrick Floor
 EGL .               .000             :   Elevation Of Ground Level
 EKB .             73.000             :   Elevation Of Kelly Bushing
 ENGI.        LEBIOKI#                :   Engineer'S Name
 EPD .               .000             :   Elevation Of Perm. Datum
 LATI.        864,663 Y N             :   Latitude
 LCC .        440                     :   Logging Company Code
 LMF .        DF                      :   Log Measured From
 LONG.        3,223,823 Y E           :   Longitude
 LUL .        PBG                     :   Logging Unit Location
 LUN .        737                     :   Logging Unit Number
 MCSS.        EMT                     :   Mud Cake Sample Source
 MCST.             70.000             :   Mud Cake Sample Temperature
 MFSS.        EMT                     :   Mud Filtrate Sample Source
 MFST.             70.000             :   Mud Filtrate Sample Temperature
 MONT.        12                      :   Date - Month
 MRT .            154.000             :   Maximum Recorded Temperature
 MSS .        FLOWLINE                :   Mud Sample Source
 MST .             68.000             :   Mud Sample Temperature
 NATI.        BANGLADESH              :   Nation
 PDAT.        MSL                     :   Permanent Datum
 R1  .        SELECTED CURVES OVER SELECTED INTERVALS AS PER PETROBANGLA:   Remark Line 1
 R2  .        SPECIFICATIONS DETAILED IN TABLE 6.:   Remark Line 2
 R3  .        DATA TAKEN FROM TAPE 183. THIS TAPE IS A SCHLUMBERGER:   Remark Line 3
 R4  .        EDIT TAPE.              :   Remark Line 4
 R5  .        MSFL TAPE DATA OFFSET FROM H/C LOG, HOWEVER ALL DIGITAL:   Remark Line 5
 R6  .        SOURCES FOUND TO BE IDENTICAL ON SLB EDIT TAPES, CURVE:   Remark Line 6
 R7  .        OUTPUT AS PER EDIT TAPES.:   Remark Line 7
 RMCS.              2.140             :   Resistivity Of Mud Cake Sample
 RMFS.              5.350             :   Resistivity Of Mud Filtrate Sample
 RMS .              3.480             :   Resistivity Of Mud Sample
 RUN .        2                       :   Run Number
 STAT.        BANGLADESH              :   State Or Province
 TCS .        14:00/28                :   Time Circulation Stopped
 TDD .          11568.000             :   Total Depth - Driller
 TDL .          11572.000             :   Total Depth - Logger
 TLAB.        23:29/28                :   Time Logger At Bottom
 TLI .           5108.000             :   Top Log Interval
 TOOL.        COMPOSITE               :   Epl Of All Possible Sensors
 WITN.        ELAHI                   :   Witness' Name
 YEAR.        88                      :   Date - Year
#  Curve Data
~A   DEPT        GR          CALI        SP          ILD         SFLU        MSFL        DT          RHOB        DRHO        PEF         NPHI
# ...
 10768.0000     46.1000      8.4644    -94.9778      7.5033     28.8213     54.7479     73.1333      2.4347     -0.0029      3.0400     18.0400
 10768.5000     46.9667      8.4667    -95.0889      7.4041     29.6276     57.6828     73.3111      2.4427     -0.0062      3.1956     17.1200
 10769.0000     49.3000      8.4622    -95.6667      7.3138     28.5867     60.0293     73.6667      2.4373     -0.0100      3.3067     17.4000
 10769.5000     47.7667      8.4600    -95.2667      7.2690     25.4420     56.9222     74.6667      2.4327     -0.0082      3.2578     19.2667
 10770.0000     46.0667      8.4600    -95.8667      7.2024     22.4312     50.9159     74.7778      2.4213     -0.0062      3.1956     19.7600
 10770.5000     44.8333      8.4600    -96.0889      7.1803     21.8400     50.5991     75.0444      2.4140     -0.0051      3.0622     19.3333
 10771.0000     43.4667      8.4644    -96.8000      7.1729     23.3203     53.4752     75.1555      2.4076     -0.0050      3.0667     18.0267
 10771.5000     39.1333      8.4667    -97.4000      7.1950     25.6231     54.9722     75.8667      2.3991     -0.0073      2.9867     17.9467
 10772.0000     37.1000      8.4667    -97.9556      7.2097     27.0765     55.7082     76.0444      2.3871     -0.0122      3.0933     18.1067
 10772.5000     37.7000      8.4667    -98.1333      7.3966     27.6361     56.2812     76.4667      2.3851     -0.0132      2.9067     18.0400
 10773.0000     42.2000      8.4667    -97.9556      7.5650     28.1212     55.1410     75.8889      2.3931     -0.0138      2.9556     16.9733
 10773.5000     45.6667      8.4667    -97.6445      7.6663     29.2366     55.8238     75.0222      2.4204     -0.0083      3.0267     15.7067
 10774.0000     50.0000      8.4667    -96.7111      7.7770     29.6276     61.7163     74.4444      2.4427     -0.0022      3.1867     15.7067
 10774.5000     48.7000      8.4667    -95.8000      7.8973     28.7915     61.9014     74.0000      2.4409     -0.0019      3.2267     16.9333
 10775.0000     51.6000      8.4711    -96.1111      8.0194     26.9668     57.5657     73.3333      2.4353     -0.0034      3.1867     18.2133
 10775.5000     50.6667      8.4778    -93.4667      8.1019     25.3336     56.8025     73.0667      2.4324     -0.0070      3.2444     18.3600
 10776.0000     57.7000      8.4800    -93.8000      8.1518     26.0707     53.7481     73.0889      2.4436     -0.0052      3.2667     17.4400
 10776.5000     56.9667      8.4756    -94.8445      8.1601     28.7937     56.3503     72.3333      2.4438     -0.0038      3.1600     17.2933
 10777.0000     56.7000      8.4622    -95.0222      8.0688     31.1193     74.1931     72.3111      2.4356     -0.0031      3.2533     18.2267
 10777.5000     53.7667      8.4600    -94.0889      7.9703     29.7816     53.2554     72.5778      2.4329     -0.0032      3.4000     18.7867
 10778.0000     53.2333      8.4600    -93.6667      7.7929     26.6949     54.2455     73.0667      2.4309     -0.0062      3.4311     19.0133
 10778.5000     55.2000      8.4600    -94.2889      7.5806     24.2207     52.9294     73.8667      2.4253     -0.0117      3.2622     19.4667
 10779.0000     50.4333      8.4644    -95.9333      7.3589     22.6141     53.5834     74.2667      2.4276     -0.0073      2.9733     20.9867
 10779.5000     43.9333      8.4667    -97.8445      7.1364     22.0872     52.9836     75.3111      2.4142     -0.0069      3.0133     21.2800
 10780.0000     37.8667      8.4667    -99.9556      6.9135     22.1099     52.2833     75.9778      2.4042      0.0000      2.9556     19.8400
 10780.5000     35.7000      8.4622   -103.2444      6.7804     22.8696     54.0792     77.1333      2.3798     -0.0043      2.9333     17.8267
 10781.0000     36.1000      8.4600   -105.6889      6.6908     23.8990     50.5471     78.1778      2.3707     -0.0049      2.9333     17.1600
 10781.5000     35.2000      8.4600   -107.4222      6.6226     25.2049     51.4874     78.4444      2.3724     -0.0058      2.8844     17.4667
 10782.0000     36.5333      8.4644   -108.6667      6.6091     26.3928     52.6054     78.9111      2.3776     -0.0026      2.8400     18.4800
 10782.5000     38.1333      8.4667   -109.8667      6.6023     27.5799     51.3291     78.8889      2.3949      0.0053      2.8756     18.2667
 10783.0000     39.0333      8.4667   -111.5333      6.6908     28.2942     52.3371     78.4444      2.4020      0.0049      2.9111     18.0400
 10783.5000     39.0333      8.4667   -111.0000      6.7182     28.0062     53.3101     78.0444      2.4093      0.0070      3.1067     17.2667
 10784.0000     39.1333      8.4667   -110.4667      6.7596     26.9659     54.4122     77.9556      2.4113      0.0009      2.9733     17.3200
 10784.5000     40.8000      8.4667   -111.0444      6.7873     26.2575     53.6934     77.8222      2.4100      0.0003      3.0533     17.9467
 10785.0000     40.0000      8.4667   -111.8000      6.6976     26.2037     53.2554     77.8444      2.4082      0.0006      2.9689     17.9067
 10785.5000     39.4667      8.4667   -112.0889      6.5419     26.4192     53.5286     77.9778      2.3904      0.0007      2.8889     17.5867
 10786.0000     37.9333      8.4667   -112.9111      6.3117     26.3383     54.4122     78.5778      2.3813      0.0002      2.8000     17.4667
 10786.5000     36.8000      8.4667   -113.8222      6.0648     25.5946     53.0926     79.2444      2.3627     -0.0033      2.8489     17.8267
 10787.0000     33.9667      8.4667   -114.5778      5.7623     24.8208     52.5518     80.1778      2.3649      0.0028      2.8622     18.2400
 10787.5000     32.8333      8.4667   -115.3778      5.5539     23.9965     50.9114     80.6667      2.3540      0.0046      2.8756     18.4400
 10788.0000     31.0000      8.4667   -116.2444      5.2285     23.2470     49.5740     80.4667      2.3633      0.0066      2.8800     19.1600
 10788.5000     31.3333      8.4667   -116.7333      5.0136     22.7993     49.5739     80.5333      2.3573      0.0067      2.9244     19.5867
 10789.0000     29.3000      8.4667   -117.5778      4.8174     22.6364     49.9302     80.1778      2.3593      0.0073      3.0267     20.0800
 10789.5000     30.9667      8.4667   -118.0889      4.6813     22.3602     48.8188     79.8000      2.3516      0.0067      2.9289     20.4400
 10790.0000     34.0667      8.4667   -118.5556      4.5771     22.3373     48.2721     79.9333      2.3480      0.0067      2.8800     20.3067
 10790.5000     35.7000      8.4667   -118.7556      4.4935     22.4748     48.3711     79.5778      2.3551      0.0064      2.8800     19.9200
 10791.0000     34.1000      8.4667   -119.6000      4.4341     22.4059     48.4206     79.2000      2.3620      0.0052      2.8533     19.7333
 10791.5000     32.5667      8.4667   -119.2000      4.4205     22.6133     49.5233     79.6222      2.3631      0.0027      2.9200     19.7867
 10792.0000     31.6000      8.4711   -118.3556      4.4160     22.4979     50.2894     79.8222      2.3700      0.0051      2.8400     19.8933
 10792.5000     32.7000      8.4778   -118.3111      4.4251     22.2916     50.3922     78.8667      2.3647      0.0049      2.8667     19.0400
 10793.0000     32.5000      8.4800   -118.4000      4.4660     22.0646     50.1351     79.2667      2.3582      0.0011      2.8089     19.7467
 10793.5000     33.3667      8.4844   -118.1556      4.5212     22.2460     49.7771     78.8444      2.3458     -0.0036      2.6933     19.8533
 10794.0000     35.4000      8.4867   -118.0000      4.5864     22.2688     49.8792     76.5333      2.3456     -0.0040      2.7956     20.4800
 10794.5000     34.8000      8.4867   -118.0000      4.6861     22.2688     50.2377     72.2444      2.3789     -0.0027      3.1422     18.9467
 10795.0000     35.9000      8.5111   -117.7556      4.7732     22.6135     49.7771     67.5556      2.4422      0.0054      3.6533     16.5067
 10795.5000     36.7333      8.5244   -117.8445      4.8470     24.3966     52.6231     65.8667      2.4967      0.0113      3.3022     14.0800
