~Version Information
 VERS.                2.00:   CWLS log ASCII Standard -VERSION 2.00
 WRAP.                  NO:   One line per frame
~Well Information Block
#MNEM.UNIT              Data                Description
#--------- -------------------------------  -------------------------------
 STRT.F                         7800.0000:   Starting Depth
 STOP.F                        11520.0000:   Ending Depth
 STEP.F                            0.5000:   Level Spacing
 NULL.                          -999.2500:   Absent Value
 COMP.     BOGMC/PIU                     :   Company
 WELL.     KAILASTILA-3                  :   Well
 FLD .     KAILASTILA                    :   Field
 LOC .                                   :   Location
 PROV.                                   :   Province
 SRVC.                                   :   Service Company
 LIC .                                   :   License Number
 DATE.                                   :   Log Date
 UWI .                                   :   Unique Well ID
~Curve Information Block
#MNEM.UNIT       API Codes    Curve Description
#---------    -------------   -------------------------------
 DEPT.F        0   0  0  0:   Primary Index
 GR  .GAPI     0   0  0  0:   Gamma Ray
 CALI.IN       0   0  0  0:   Caliper
 SP  .MV       0   0  0  0:   Spontaneous Potential
 ILD .OHMM     0   0  0  0:   Deep Induction Standard Processed Resistivity
 SFLU.OHMM     0   0  0  0:   SFL Resistivity (Unaveraged)
 MSFL.OHMM     0   0  0  0:   Msfl Resistivity
 DT  .US/F     0   0  0  0:   Delta-T
 RHOB.G/C3     0   0  0  0:   Bulk Density
 DRHO.G/C3     0   0  0  0:   Delta Rho
 PEF .         0   0  0  0:   Photo-Electric Factor
 NPHI.PU       0   0  0  0:   Neutron Porosity
~Parameter Information Block
#MNEM.UNIT              Value             Description
#---------    -------------------------   -------------------------------
 BLI .          11565.000             :   Bottom Log Interval
 BS1 .             17.000             :   Bit Size 1
 BS2 .             12.250             :   Bit Size 2
 BS3 .               .000             :   Bit Size 3
 BSD1.           5102.000             :   Bit Size Depth 1
 BSD2.          11568.000             :   Bit Size Depth 2
 BSD3.               .000             :   Bit Size Depth 3
 CBD1.            632.000             :   Casing Bottom (Driller) 1
 CBD2.           5100.000             :   Casing Bottom (Driller) 2
 CBD3.               .000             :   Casing Bottom (Driller) 3
 CBL1.            634.000             :   Casing Bottom (Logger) 1
 CBL2.           5108.000             :   Casing Bottom (Logger) 2
 CBL3.               .000             :   Casing Bottom (Logger) 3
 CS1 .             13.375             :   Casing Size 1
 CS2 .              9.625             :   Casing Size 2
 CS3 .               .000             :   Casing Size 3
 CW1 .               .000             :   Casing Weight 1
 CW2 .               .000             :   Casing Weight 2
 CW3 .               .000             :   Casing Weight 3
 DAY .        28                      :   Date - Day
 DFD .              9.650             :   Drilling Fluid Density
 DFL .              5.200             :   Drilling Fluid Loss
 DFPH.              9.000             :   Drilling Fluid Ph
 DFT .        GEL-BENEX               :   Drilling Fluid Type
 DFV .             48.000             :   Drilling Fluid Viscosity
 DMF .        DF                      :   Drilling Measured From
 EDF .             72.000             :   Elevation Of Derrick Floor
 EGL .               .000             :   Elevation Of Ground Level
 EKB .             73.000             :   Elevation Of Kelly Bushing
 ENGI.        LEBIOKI#                :   Engineer'S Name
 EPD .               .000             :   Elevation Of Perm. Datum
 LATI.        864,663 Y N             :   Latitude
 LCC .        440                     :   Logging Company Code
 LMF .        DF                      :   Log Measured From
 LONG.        3,223,823 Y E           :   Longitude
 LUL .        PBG                     :   Logging Unit Location
 LUN .        737                     :   Logging Unit Number
 MCSS.        EMT                     :   Mud Cake Sample Source
 MCST.             70.000             :   Mud Cake Sample Temperature
 MFSS.        EMT                     :   Mud Filtrate Sample Source
 MFST.             70.000             :   Mud Filtrate Sample Temperature
 MONT.        12                      :   Date - Month
 MRT .            154.000             :   Maximum Recorded Temperature
 MSS .        FLOWLINE                :   Mud Sample Source
 MST .             68.000             :   Mud Sample Temperature
 NATI.        BANGLADESH              :   Nation
 PDAT.        MSL                     :   Permanent Datum
 R1  .        SELECTED CURVES OVER SELECTED INTERVALS AS PER PETROBANGLA:   Remark Line 1
 R2  .        SPECIFICATIONS DETAILED IN TABLE 6.:   Remark Line 2
 R3  .        DATA TAKEN FROM TAPE 183. THIS TAPE IS A SCHLUMBERGER:   Remark Line 3
 R4  .        EDIT TAPE.              :   Remark Line 4
 R5  .        MSFL TAPE DATA OFFSET FROM H/C LOG, HOWEVER ALL DIGITAL:   Remark Line 5
 R6  .        SOURCES FOUND TO BE IDENTICAL ON SLB EDIT TAPES, CURVE:   Remark Line 6
 R7  .        OUTPUT AS PER EDIT TAPES.:   Remark Line 7
 RMCS.              2.140             :   Resistivity Of Mud Cake Sample
 RMFS.              5.350             :   Resistivity Of Mud Filtrate Sample
 RMS .              3.480             :   Resistivity Of Mud Sample
 RUN .        2                       :   Run Number
 STAT.        BANGLADESH              :   State Or Province
 TCS .        14:00/28                :   Time Circulation Stopped
 TDD .          11568.000             :   Total Depth - Driller
 TDL .          11572.000             :   Total Depth - Logger
 TLAB.        23:29/28                :   Time Logger At Bottom
 TLI .           5108.000             :   Top Log Interval
 TOOL.        COMPOSITE               :   Epl Of All Possible Sensors
 WITN.        ELAHI                   :   Witness' Name
 YEAR.        88                      :   Date - Year
#  Curve Data
~A   DEPT        GR          CALI        SP          ILD         SFLU        MSFL        DT          RHOB        DRHO        PEF         NPHI
  7800.0000     68.0000     15.1400    -82.6667     11.7950     11.4033     11.4735     85.8000      2.4613     -0.0037      3.5333     25.4400
  7800.5000     65.7667     14.9800    -82.8667     11.4855     11.0136     10.3680     85.5556      2.4520     -0.0088      3.4089     24.8400
  7801.0000     63.4000     14.6067    -82.9111     11.1609     10.3366     10.5934     85.5333      2.4402     -0.0107      3.3956     26.3200
  7801.5000     62.9333     14.7267    -83.2222     10.9012     10.1997     10.9908     85.1778      2.4389     -0.0070      3.1467     25.1600
  7802.0000     68.5000     14.5133    -83.6222     10.8678      9.9319     10.7242     84.7778      2.4360     -0.0053      3.2178     26.6000
  7802.5000     67.4000     14.8244    -83.8445     10.8567      9.6810     10.8456     84.6000      2.4427     -0.0001      3.2667     25.5200
  7803.0000     69.6000     15.9111    -83.9778     10.9459      9.4848     10.8901     83.5333      2.4433      0.0000      3.5467     26.0267
  7803.5000     64.7000     16.7511    -84.5333     10.9571      9.6811     10.7242     83.9333      2.4453      0.0003      3.5067     24.0000
  7804.0000     66.5333     15.9844    -84.0667     10.9347     10.3793     11.1046     82.5333      2.4373      0.0003      3.5422     25.0400
  7804.5000     66.8333     15.5578    -84.4000     10.9012     11.1388     12.8933     82.8444      2.4387      0.0020      3.5467     22.9200
  7805.0000     68.7000     15.6933    -85.7333     10.7352     11.7228     12.5548     84.7333      2.4369     -0.0007      3.5600     23.3733
  7805.5000     66.1667     16.0356    -84.2667     10.7242     10.9803     14.2243     83.8889      2.4562     -0.0014      3.5244     21.5200
  7806.0000     64.3667     16.2000    -84.0667     10.6367     10.2525     12.6599     83.5111      2.4753     -0.0050      3.5022     22.1600
  7806.5000     64.2333     15.6667    -84.2222     10.5608      9.7607     12.3256     82.8667      2.4898     -0.0036      3.5867     23.2000
  7807.0000     65.8333     15.8267    -85.2667     10.5392      9.6513     13.5436     83.4000      2.5040      0.0008      3.4311     24.2000
  7807.5000     66.6000     16.2600    -85.0222     10.2731      9.3404     13.7660     82.9333      2.5093      0.0067      3.2444     24.3733
  7808.0000     67.9667     16.0089    -85.0000     10.0649      9.4268     13.0802     84.3555      2.5173      0.0113      3.1200     23.9200
  7808.5000     68.3333     16.0600    -85.0000     10.1269      9.1982     11.6764     85.6000      2.5031      0.0096      3.1689     24.3467
  7809.0000     66.7667     17.0822    -84.7556     10.4320      9.0210     10.9127     84.0667      2.4858      0.0079      3.2400     25.9600
  7809.5000     66.4333     16.1000    -84.7333     10.6695      9.0211     10.9461     84.1111      2.4713      0.0053      3.2000     25.3467
  7810.0000     68.1000     14.9356    -84.2444     10.7461     10.1079     12.3017     80.6000      2.4838      0.0078      3.3200     24.8000
  7810.5000     66.0667     16.2933    -83.7333     10.8456     11.1506     12.8952     81.8667      2.5173      0.0090      3.4400     23.6000
  7811.0000     60.8667     16.1244    -83.9111     10.8789     12.3888     16.5334     81.0667      2.5353      0.0042      3.6133     20.9200
  7811.5000     59.0000     16.2644    -84.3556     11.0359     12.0637     13.9005     82.6667      2.5240     -0.0011      3.5156     21.3600
  7812.0000     61.3000     17.0111    -84.8889     11.2988     11.1618     11.3134     82.4000      2.4764     -0.0063      3.4000     22.5733
  7812.5000     64.3000     17.8533    -85.4222     11.5797     10.2730     11.2067     82.9333      2.4587     -0.0057      3.2533     23.8400
  7813.0000     62.4000     18.3489    -85.5556     11.4501     10.3574     11.5326     82.4667      2.4640      0.0010      3.1689     24.1867
  7813.5000     60.6000     18.3489    -86.4222     11.3103     10.6042     12.2505     82.9333      2.4911      0.0039      3.0933     22.8800
  7814.0000     59.8000     17.8600    -87.4667     11.2756     10.7132     12.4524     82.5111      2.5098      0.0093      3.2933     22.9867
  7814.5000     61.9000     18.6000    -85.5333     11.2411     10.8456     11.2886     82.3333      2.5113      0.0064      3.5822     21.8400
  7815.0000     62.3000     18.1200    -85.7111     11.1608     10.8345     10.3046     82.6667      2.4884      0.0027      3.7333     22.2667
  7815.5000     61.7000     18.5422    -86.0667     11.1608     10.6804     10.5502     85.4000      2.4536      0.0017      3.6044     22.8933
  7816.0000     57.3333     19.3800    -86.7333     11.1039     10.4855     11.0925     83.4667      2.4309      0.0024      3.4044     24.5333
  7816.5000     55.7667     19.3311    -86.2000     11.0021     10.3257     10.8235     82.6444      2.4298      0.0060      3.3244     24.8933
  7817.0000     53.8000     16.8378    -86.0667     10.8901     10.1373     10.7352     81.2667      2.4347      0.0004      3.3333     23.9333
  7817.5000     55.0333     16.4778    -86.1556     11.0133      9.9625     10.4855     81.3111      2.4311     -0.0067      3.2844     23.5733
  7818.0000     57.4000     16.9800    -85.6445     11.1266      9.6612     10.2102     83.3111      2.4258     -0.0084      3.2667     23.0400
  7818.5000     58.5667     17.2133    -85.5556     11.1266      9.7906     10.0546     84.5556      2.4253     -0.0026      3.3511     24.6133
  7819.0000     63.3000     16.1622    -84.9778     11.2526     10.1374     10.3580     84.9333      2.4253     -0.0008      3.4178     26.0400
  7819.5000     61.4000     16.3156    -84.9556     11.2641     10.6152     11.8676     84.6889      2.4258     -0.0016      3.4400     25.6800
  7820.0000     64.3000     16.7822    -84.4667     11.2641     10.7461     11.8071     84.2444      2.4344     -0.0100      3.3333     23.8800
  7820.5000     59.2000     16.2356    -84.7111     11.4150     10.9684     12.8538     84.0444      2.4584     -0.0080      3.3022     19.8800
  7821.0000     61.2000     16.2022    -85.0222     11.7229     11.0359     12.5420     83.4222      2.4829     -0.0103      3.1600     20.1600
  7821.5000     59.4000     16.2556    -85.3778     12.1255     10.6585     11.9774     82.6444      2.4989     -0.0040      3.2578     21.8267
  7822.0000     61.0000     16.0022    -85.3778     12.4397     10.9461     12.5293     82.4889      2.5140      0.0009      3.2844     22.8400
  7822.5000     60.5333     16.7533    -86.1778     12.5035     11.6637     12.8934     80.0000      2.5176      0.0028      3.5733     23.0267
  7823.0000     63.3000     16.1178    -87.0667     12.4269     12.6590     13.4595     80.3555      2.5227      0.0073      3.3600     22.0400
  7823.5000     62.2667     15.8867    -85.1333     12.4015     13.4595     13.0660     79.1111      2.5178      0.0054      3.3911     22.1467
  7824.0000     59.9667     15.7933    -85.3778     12.3256     13.2276     14.8946     78.6667      2.5169      0.0049      3.2667     22.2800
  7824.5000     54.1000     16.3089    -85.6889     12.2376     12.2635     13.0947     79.4000      2.5149      0.0014      3.4133     23.0000
  7825.0000     55.4333     16.8356    -86.7333     12.2126     11.4740     12.8013     81.4889      2.5084     -0.0039      3.4400     21.8400
  7825.5000     56.8333     16.1356    -86.3778     12.1378     11.0586     12.1632     82.2444      2.4922     -0.0052      3.7733     22.3200
  7826.0000     58.2000     15.8556    -86.2667     11.8920     10.7572     11.7589     83.0667      2.4800     -0.0066      3.6844     22.0667
  7826.5000     57.1000     16.1111    -86.4667     11.8434     10.6913     11.7108     83.3111      2.4687     -0.0059      3.4044     21.0400
  7827.0000     57.1000     15.8200    -86.5111     11.5916     10.8568     12.2001     83.5778      2.4720     -0.0034      3.1289     21.3200
  7827.5000     59.8333     15.9222    -86.5333     11.5797     11.4037     12.1752     83.7333      2.4784     -0.0037      3.0978     21.1333
