~Version Information
 VERS.                2.00:   CWLS log ASCII Standard -VERSION 2.00
 WRAP.                  NO:   One line per frame
~Well Information Block
#MNEM.UNIT              Data                Description
#--------- -------------------------------  -------------------------------
 STRT.F                         7800.0000:   Starting Depth
 STOP.F                        11520.0000:   Ending Depth
 STEP.F                            0.5000:   Level Spacing
 NULL.                          -999.2500:   Absent Value
 COMP.     BOGMC/PIU                     :   Company
 WELL.     KAILASTILA-3                  :   Well
 FLD .     KAILASTILA                    :   Field
 LOC .                                   :   Location
 PROV.                                   :   Province
 SRVC.                                   :   Service Company
 LIC .                                   :   License Number
 DATE.                                   :   Log Date
 UWI .                                   :   Unique Well ID
~Curve Information Block
#MNEM.UNIT       API Codes    Curve Description
#---------    -------------   -------------------------------
 DEPT.F        0   0  0  0:   Primary Index
 GR  .GAPI     0   0  0  0:   Gamma Ray
 CALI.IN       0   0  0  0:   Caliper
 SP  .MV       0   0  0  0:   Spontaneous Potential
 ILD .OHMM     0   0  0  0:   Deep Induction Standard Processed Resistivity
 SFLU.OHMM     0   0  0  0:   SFL Resistivity (Unaveraged)
 MSFL.OHMM     0   0  0  0:   Msfl Resistivity
 DT  .US/F     0   0  0  0:   Delta-T
 RHOB.G/C3     0   0  0  0:   Bulk Density
 DRHO.G/C3     0   0  0  0:   Delta Rho
 PEF .         0   0  0  0:   Photo-Electric Factor
 NPHI.PU       0   0  0  0:   Neutron Porosity
~Parameter Information Block
#MNEM.UNIT              Value             Description
#---------    -------------------------   -------------------------------
 BLI .          11565.000             :   Bottom Log Interval
 BS1 .             17.000             :   Bit Size 1
 BS2 .             12.250             :   Bit Size 2
 BS3 .               .000             :   Bit Size 3
 BSD1.           5102.000             :   Bit Size Depth 1
 BSD2.          11568.000             :   Bit Size Depth 2
 BSD3.               .000             :   Bit Size Depth 3
 CBD1.            632.000             :   Casing Bottom (Driller) 1
 CBD2.           5100.000             :   Casing Bottom (Driller) 2
 CBD3.               .000             :   Casing Bottom (Driller) 3
 CBL1.            634.000             :   Casing Bottom (Logger) 1
 CBL2.           5108.000             :   Casing Bottom (Logger) 2
 CBL3.               .000             :   Casing Bottom (Logger) 3
 CS1 .             13.375             :   Casing Size 1
 CS2 .              9.625             :   Casing Size 2
 CS3 .               .000             :   Casing Size 3
 CW1 .               .000             :   Casing Weight 1
 CW2 .               .000             :   Casing Weight 2
 CW3 .               .000             :   Casing Weight 3
 DAY .        28                      :   Date - Day
 DFD .              9.650             :   Drilling Fluid Density
 DFL .              5.200             :   Drilling Fluid Loss
 DFPH.              9.000             :   Drilling Fluid Ph
 DFT .        GEL-BENEX               :   Drilling Fluid Type
 DFV .             48.000             :   Drilling Fluid Viscosity
 DMF .        DF                      :   Drilling Measured From
 EDF .             72.000             :   Elevation Of Derrick Floor
 EGL .               .000             :   Elevation Of Ground Level
 EKB .             73.000             :   Elevation Of Kelly Bushing
 ENGI.        LEBIOKI#                :   Engineer'S Name
 EPD .               .000             :   Elevation Of Perm. Datum
 LATI.        864,663 Y N             :   Latitude
 LCC .        440                     :   Logging Company Code
 LMF .        DF                      :   Log Measured From
 LONG.        3,223,823 Y E           :   Longitude
 LUL .        PBG                     :   Logging Unit Location
 LUN .        737                     :   Logging Unit Number
 MCSS.        EMT                     :   Mud Cake Sample Source
 MCST.             70.000             :   Mud Cake Sample Temperature
 MFSS.        EMT                     :   Mud Filtrate Sample Source
 MFST.             70.000             :   Mud Filtrate Sample Temperature
 MONT.        12                      :   Date - Month
 MRT .            154.000             :   Maximum Recorded Temperature
 MSS .        FLOWLINE                :   Mud Sample Source
 MST .             68.000             :   Mud Sample Temperature
 NATI.        BANGLADESH              :   Nation
 PDAT.        MSL                     :   Permanent Datum
 R1  .        SELECTED CURVES OVER SELECTED INTERVALS AS PER PETROBANGLA:   Remark Line 1
 R2  .        SPECIFICATIONS DETAILED IN TABLE 6.:   Remark Line 2
 R3  .        DATA TAKEN FROM TAPE 183. THIS TAPE IS A SCHLUMBERGER:   Remark Line 3
 R4  .        EDIT TAPE.              :   Remark Line 4
 R5  .        MSFL TAPE DATA OFFSET FROM H/C LOG, HOWEVER ALL DIGITAL:   Remark Line 5
 R6  .        SOURCES FOUND TO BE IDENTICAL ON SLB EDIT TAPES, CURVE:   Remark Line 6
 R7  .        OUTPUT AS PER EDIT TAPES.:   Remark Line 7
 RMCS.              2.140             :   Resistivity Of Mud Cake Sample
 RMFS.              5.350             :   Resistivity Of Mud Filtrate Sample
 RMS .              3.480             :   Resistivity Of Mud Sample
 RUN .        2                       :   Run Number
 STAT.        BANGLADESH              :   State Or Province
 TCS .        14:00/28                :   Time Circulation Stopped
 TDD .          11568.000             :   Total Depth - Driller
 TDL .          11572.000             :   Total Depth - Logger
 TLAB.        23:29/28                :   Time Logger At Bottom
 TLI .           5108.000             :   Top Log Interval
 TOOL.        COMPOSITE               :   Epl Of All Possible Sensors
 WITN.        ELAHI                   :   Witness' Name
 YEAR.        88                      :   Date - Year
#  Curve Data
~A   DEPT        GR          CALI        SP          ILD         SFLU        MSFL        DT          RHOB        DRHO        PEF         NPHI
# ...
 11496.0000     86.8667      9.6000    -50.6444     11.0362     15.2416     17.9059     72.1555      2.5269      0.0141      3.7200     22.7200
 11496.5000     83.7333      9.7578    -44.2222     11.5209     12.5714     12.0642     70.2222      2.5320      0.0126      3.6000     22.8800
 11497.0000     82.1667      9.9200    -41.0000     12.0022     11.7588     11.9774     68.0000      2.5271      0.0112      3.6667     22.6667
 11497.5000     80.1000     10.0800    -40.0667     12.5166     12.0761     12.1627     68.2889      2.5062      0.0078      3.6489     21.4400
 11498.0000     81.1000      9.8356    -39.7778     12.8934     12.7756     12.0512     68.6889      2.4760      0.0033      3.7822     22.1600
 11498.5000     84.3333      9.6200    -38.7111     13.0928     13.4600     12.0759     66.7333      2.4702      0.0126      3.9067     21.5867
 11499.0000     90.7000      9.5267    -37.8889     13.8652     14.1956     12.1503     67.6000      2.4904      0.0221      3.9911     23.6133
 11499.5000     90.0667      9.5244    -37.2667     13.9076     14.6980     12.2502     67.0000      2.5200      0.0257      3.7600     24.0800
 11500.0000     87.5000      9.6067    -36.6667     14.5485     15.2965     11.5797     68.0000      2.5129      0.0098      3.9911     24.5467
 11500.5000     85.5000      9.7333    -36.3556     14.9865     15.9354     11.8437     67.4000      2.5058      0.0093      4.0667     22.9600
 11501.0000     89.0000      9.2800    -36.4444     15.2182     15.8055     12.7359     67.9333      2.5040      0.0266      4.6800     23.5733
 11501.5000     83.1000      9.5467    -36.5333     14.8035     15.7249     12.3888     68.0444      2.4916      0.0352      4.3467     23.8267
 11502.0000     76.9667      9.4422    -36.0667     14.9252     15.1717     13.1734     68.1555      2.4736      0.0601      4.4933     22.3200
 11502.5000     71.4000      9.3844    -36.4000     15.0325     15.0017     12.8148     68.7333      2.4278      0.0850      4.4800     20.3067
 11503.0000     72.4000      8.8400    -36.2000     14.7431     14.7884     11.2987     68.2444      2.3440      0.1040      4.8222     18.4000
 11503.5000     72.4333      9.3200    -36.5333     14.6078     14.4889     11.6873     67.8889      2.2493      0.0839      5.2000     18.8267
 11504.0000     71.1667      8.9133    -37.7333     15.2965     13.9220     12.7751     69.4000      2.1980      0.0591      5.1244     20.8667
 11504.5000     68.7333      8.9133    -37.7333     15.2651     13.9790     12.3385     69.5778      2.2336      0.0333      4.7689     23.0800
 11505.0000     68.6333      8.7000    -39.6000     14.4887     14.6086     12.0026     70.0889      2.3184      0.0148      4.1244     23.9333
 11505.5000     70.2333      8.7844    -41.2667     14.5631     16.5359     15.7021     71.8667      2.4100      0.0053      4.0400     24.1333
 11506.0000     70.5000      9.0400    -41.5111     13.8792     17.5450     19.9358     70.7556      2.4567      0.0057      4.0667     22.1333
 11506.5000     67.8000      9.2067    -41.9333     14.1807     17.6889     17.0659     68.6667      2.4782      0.0134      4.3733     20.8267
 11507.0000     63.4333      9.4067    -43.1556     14.0363     15.8723     13.9652     69.6444      2.5031      0.0303      4.3911     20.5467
 11507.5000     60.9000      9.0333    -45.2667     13.6679     14.7440     13.2953     70.0000      2.5036      0.0308      4.1822     20.2000
 11508.0000     63.7667      9.2044    -47.6667     13.5286     13.4880     13.8510     72.8222      2.4842      0.0204      4.0000     18.7200
 11508.5000     63.9667      8.6911    -50.1778     12.9732     13.1330     11.3683     73.1333      2.4687      0.0132      4.1067     16.6533
 11509.0000     64.7000      8.5178    -55.0444     12.3007     14.1687     15.8374     74.9111      2.4720      0.0129      4.2933     15.4800
 11509.5000     63.4333      8.5111    -59.9333     12.2126     17.2314     17.2777     75.3778      2.4807      0.0167      4.0089     16.2667
 11510.0000     62.7333      8.5133    -64.4000     11.9897     19.5748     23.6922     73.6667      2.4722      0.0126      3.7200     16.9467
 11510.5000     62.8667      8.5089    -67.8889     11.9529     18.9640     36.0604     72.0000      2.4684      0.0086      3.6044     16.9067
 11511.0000     63.5000      8.4956    -69.5111     11.7829     17.6345     33.7414     71.8222      2.4627      0.0014      3.6044     16.4400
 11511.5000     63.0333      8.4622    -71.1778     11.5324     18.0178     32.2872     70.7778      2.4653     -0.0020      3.4800     16.5200
 11512.0000     62.9333      8.4644    -73.3556     11.3800     18.7900     33.8443     70.0667      2.4587      0.0003      3.5689     17.1600
 11512.5000     61.3000      8.4622    -73.5333     11.2181     19.1979     34.1567     70.0444      2.4500      0.0037      4.3111     16.5467
 11513.0000     62.0000      8.4267    -73.6889     10.8568     19.1979     35.5483     70.3555      2.3764     -0.0003      5.5200     16.2667
 11513.5000     63.6333      8.3711    -73.1778     10.7571     19.6551     37.3381     71.2889      2.1462      0.0017      6.2311     15.9600
 11514.0000     67.4000      8.3622    -72.9778     10.8123     20.0632     38.5801     72.1778      1.8844     -0.0023      6.8444     16.3067
 11514.5000     72.6000      8.3467    -72.0000     10.8789     21.0070     37.2990     73.0889      1.6053      0.0050      6.8667     16.9733
 11515.0000     73.0000      8.3933    -70.7556     11.0359     20.7718     37.7985     74.0000      1.6389      0.0054      6.5511     20.2133
 11515.5000     73.4000      8.4911    -68.7556     11.1952     20.6870     35.2233     72.5333      1.8324      0.0519      6.4622     25.6933
 11516.0000     72.3333      8.7822    -66.4444     11.0925     20.6025     34.6855     74.8444      2.0180      0.1041      6.3067     28.8667
 11516.5000     68.8000      9.2467    -62.6000     11.3336     20.1027     31.2885     77.4222      2.0118      0.1167      6.3422     29.4800
 11517.0000     69.7000     10.1356    -55.8000     11.6510     17.9144     24.2046     80.2000      1.9333      0.0969      5.9822     28.5600
 11517.5000     67.4000     11.2533    -50.2444     11.4383     13.3875     16.8660     75.6222      1.9473      0.0743      5.9289     28.6667
 11518.0000     70.7667     12.1578    -47.8000     12.0395     10.8489     11.6939     71.2000      2.0038      0.0900      5.7733     27.6400
 11518.5000     71.7000     12.5756    -46.7333     12.7102     10.4640      8.1073     71.7778      2.1476      0.1182      5.4133     28.2533
 11519.0000     70.3333     12.8111    -44.6889     13.0660     10.9686      6.0371     65.3333      2.2711      0.1628      5.6978     28.6667
 11519.5000     67.9000     13.0867    -43.2000     13.4184     11.5330      5.9359     66.8889      2.3027      0.1896      5.7644     29.4000
 11520.0000   -999.2500   -999.2500   -999.2500   -999.2500   -999.2500   -999.2500   -999.2500   -999.2500   -999.2500   -999.2500   -999.2500
