~Version Information
 VERS.                2.00:   CWLS log ASCII Standard -VERSION 2.00
 WRAP.                  NO:   One line per frame
~Well Information Block
#MNEM.UNIT              Data                Description
#--------- -------------------------------  -------------------------------
 STRT.F                         7800.0000:   Starting Depth
 STOP.F                        11520.0000:   Ending Depth
 STEP.F                            0.5000:   Level Spacing
 NULL.                          -999.2500:   Absent Value
 COMP.     BOGMC/PIU                     :   Company
 WELL.     KAILASTILA-3                  :   Well
 FLD .     KAILASTILA                    :   Field
 LOC .                                   :   Location
 PROV.                                   :   Province
 SRVC.                                   :   Service Company
 LIC .                                   :   License Number
 DATE.                                   :   Log Date
 UWI .                                   :   Unique Well ID
~Curve Information Block
#MNEM.UNIT       API Codes    Curve Description
#---------    -------------   -------------------------------
 DEPT.F        0   0  0  0:   Primary Index
 GR  .GAPI     0   0  0  0:   Gamma Ray
 CALI.IN       0   0  0  0:   Caliper
 SP  .MV       0   0  0  0:   Spontaneous Potential
 ILD .OHMM     0   0  0  0:   Deep Induction Standard Processed Resistivity
 SFLU.OHMM     0   0  0  0:   SFL Resistivity (Unaveraged)
 MSFL.OHMM     0   0  0  0:   Msfl Resistivity
 DT  .US/F     0   0  0  0:   Delta-T
 RHOB.G/C3     0   0  0  0:   Bulk Density
 DRHO.G/C3     0   0  0  0:   Delta Rho
 PEF .         0   0  0  0:   Photo-Electric Factor
 NPHI.PU       0   0  0  0:   Neutron Porosity
~Parameter Information Block
#MNEM.UNIT              Value             Description
#---------    -------------------------   -------------------------------
 BLI .          11565.000             :   Bottom Log Interval
 BS1 .             17.000             :   Bit Size 1
 BS2 .             12.250             :   Bit Size 2
 BS3 .               .000             :   Bit Size 3
 BSD1.           5102.000             :   Bit Size Depth 1
 BSD2.          11568.000             :   Bit Size Depth 2
 BSD3.               .000             :   Bit Size Depth 3
 CBD1.            632.000             :   Casing Bottom (Driller) 1
 CBD2.           5100.000             :   Casing Bottom (Driller) 2
 CBD3.               .000             :   Casing Bottom (Driller) 3
 CBL1.            634.000             :   Casing Bottom (Logger) 1
 CBL2.           5108.000             :   Casing Bottom (Logger) 2
 CBL3.               .000             :   Casing Bottom (Logger) 3
 CS1 .             13.375             :   Casing Size 1
 CS2 .              9.625             :   Casing Size 2
 CS3 .               .000             :   Casing Size 3
 CW1 .               .000             :   Casing Weight 1
 CW2 .               .000             :   Casing Weight 2
 CW3 .               .000             :   Casing Weight 3
 DAY .        28                      :   Date - Day
 DFD .              9.650             :   Drilling Fluid Density
 DFL .              5.200             :   Drilling Fluid Loss
 DFPH.              9.000             :   Drilling Fluid Ph
 DFT .        GEL-BENEX               :   Drilling Fluid Type
 DFV .             48.000             :   Drilling Fluid Viscosity
 DMF .        DF                      :   Drilling Measured From
 EDF .             72.000             :   Elevation Of Derrick Floor
 EGL .               .000             :   Elevation Of Ground Level
 EKB .             73.000             :   Elevation Of Kelly Bushing
 ENGI.        LEBIOKI#                :   Engineer'S Name
 EPD .               .000             :   Elevation Of Perm. Datum
 LATI.        864,663 Y N             :   Latitude
 LCC .        440                     :   Logging Company Code
 LMF .        DF                      :   Log Measured From
 LONG.        3,223,823 Y E           :   Longitude
 LUL .        PBG                     :   Logging Unit Location
 LUN .        737                     :   Logging Unit Number
 MCSS.        EMT                     :   Mud Cake Sample Source
 MCST.             70.000             :   Mud Cake Sample Temperature
 MFSS.        EMT                     :   Mud Filtrate Sample Source
 MFST.             70.000             :   Mud Filtrate Sample Temperature
 MONT.        12                      :   Date - Month
 MRT .            154.000             :   Maximum Recorded Temperature
 MSS .        FLOWLINE                :   Mud Sample Source
 MST .             68.000             :   Mud Sample Temperature
 NATI.        BANGLADESH              :   Nation
 PDAT.        MSL                     :   Permanent Datum
 R1  .        SELECTED CURVES OVER SELECTED INTERVALS AS PER PETROBANGLA:   Remark Line 1
 R2  .        SPECIFICATIONS DETAILED IN TABLE 6.:   Remark Line 2
 R3  .        DATA TAKEN FROM TAPE 183. THIS TAPE IS A SCHLUMBERGER:   Remark Line 3
 R4  .        EDIT TAPE.              :   Remark Line 4
 R5  .        MSFL TAPE DATA OFFSET FROM H/C LOG, HOWEVER ALL DIGITAL:   Remark Line 5
 R6  .        SOURCES FOUND TO BE IDENTICAL ON SLB EDIT TAPES, CURVE:   Remark Line 6
 R7  .        OUTPUT AS PER EDIT TAPES.:   Remark Line 7
 RMCS.              2.140             :   Resistivity Of Mud Cake Sample
 RMFS.              5.350             :   Resistivity Of Mud Filtrate Sample
 RMS .              3.480             :   Resistivity Of Mud Sample
 RUN .        2                       :   Run Number
 STAT.        BANGLADESH              :   State Or Province
 TCS .        14:00/28                :   Time Circulation Stopped
 TDD .          11568.000             :   Total Depth - Driller
 TDL .          11572.000             :   Total Depth - Logger
 TLAB.        23:29/28                :   Time Logger At Bottom
 TLI .           5108.000             :   Top Log Interval
 TOOL.        COMPOSITE               :   Epl Of All Possible Sensors
 WITN.        ELAHI                   :   Witness' Name
 YEAR.        88                      :   Date - Year
#  Curve Data
~A   DEPT        GR          CALI        SP          ILD         SFLU        MSFL        DT          RHOB        DRHO        PEF         NPHI
# ...
  9284.0000     32.5000      8.6133    -95.6000     17.9440     26.0968     40.0279     86.1555      2.3413      0.0046      2.6489     24.5067
  9284.5000     30.9000      8.6133    -95.8445     18.2030     25.9901     38.3439     86.0667      2.3384      0.0011      2.6622     25.3733
  9285.0000     32.2667      8.6089    -95.9111     18.2402     25.9635     38.9771     86.1333      2.3287     -0.0063      2.8000     25.3467
  9285.5000     32.7667      8.6022    -96.3333     18.5603     26.1234     39.2974     85.8222      2.3280     -0.0082      2.7644     24.8267
  9286.0000     35.4000      8.5956    -95.8889     18.4468     25.6205     38.9770     85.8667      2.3284     -0.0097      2.7378     23.8933
  9286.5000     35.6000      8.5689    -95.9333     17.7254     24.8971     38.5407     85.4444      2.3398     -0.0068      2.6667     23.5200
  9287.0000     35.6667      8.5667    -95.6889     17.1013     24.1934     41.0248     85.2889      2.3564      0.0012      2.7067     23.9067
  9287.5000     33.7000      8.5956    -95.6667     18.0183     25.0507     42.0433     85.0889      2.3633      0.0057      2.6978     24.3067
  9288.0000     35.9000      8.5956    -95.3333     18.6938     26.9673     41.7859     84.8000      2.3564      0.0019      2.6578     24.8400
  9288.5000     34.5000      8.5622    -95.5778     17.6887     28.5560     42.0003     85.4667      2.3411     -0.0038      2.5822     24.2533
  9289.0000     35.7000      8.5644    -95.7111     18.1845     28.2077     42.4323     86.0222      2.3247     -0.0063      2.5333     24.0933
  9289.5000     33.2000      8.5667    -95.9778     18.2776     26.5285     40.6908     86.6000      2.3198     -0.0030      2.5422     24.1067
  9290.0000     35.7000      8.5667    -96.0000     18.2963     25.4899     37.6081     87.1555      2.3176     -0.0022      2.5867     24.7067
  9290.5000     32.9000      8.5667    -96.1333     17.8891     25.2818     35.9872     87.2000      2.3120     -0.0050      2.5511     24.6133
  9291.0000     33.0333      8.5667    -95.9333     17.7613     25.2559     35.6932     86.9556      2.3078     -0.0060      2.4800     23.6000
  9291.5000     31.8000      8.5667    -96.6000     17.7069     25.2043     37.1846     87.0000      2.3064     -0.0046      2.3733     23.7200
  9292.0000     32.6000      8.5667    -96.8222     17.5804     24.8459     36.5809     86.7556      2.3160      0.0002      2.5689     23.4667
  9292.5000     33.1333      8.5667    -95.3333     17.5804     24.3924     36.2083     86.2444      2.3289      0.0019      2.6178     23.2000
  9293.0000     33.7333      8.5667    -94.8445     17.7250     24.1934     35.5110     86.1555      2.3300      0.0017      2.7467     22.8400
  9293.5000     34.1000      8.5667    -94.7111     17.8890     24.1934     35.9131     86.0222      2.3309      0.0033      2.5644     23.4000
  9294.0000     36.1000      8.5667    -95.3333     17.9992     24.3175     35.8764     86.0000      2.3207      0.0016      2.5378     24.2000
  9294.5000     35.9333      8.5622    -94.9111     18.1657     24.3923     35.1496     86.0000      2.3256      0.0013      2.5067     23.8000
  9295.0000     37.9333      8.5467    -94.7556     18.5224     24.6685     34.9701     85.9333      2.3278      0.0013      2.5733     22.6933
  9295.5000     38.0333      8.5467    -94.5333     18.3526     25.3338     35.5114     86.0444      2.3280     -0.0007      2.7200     22.6933
  9296.0000     37.6000      8.5467    -94.8000     18.5034     26.0436     36.6938     86.1333      2.3313      0.0010      2.6844     23.1467
  9296.5000     33.3333      8.5467    -94.3111     18.6174     26.9935     38.2665     85.6444      2.3267     -0.0027      2.6578     23.7467
  9297.0000     31.4000      8.5467    -94.3333     18.7512     27.7780     39.3378     85.3111      2.3347     -0.0020      2.6489     24.0133
  9297.5000     33.5333      8.5467    -94.3778     18.6938     28.2074     40.1923     84.8444      2.3338     -0.0040      2.7689     24.2267
  9298.0000     33.3333      8.5467    -94.6000     18.6938     27.3273     40.2745     84.6889      2.3400     -0.0030      2.8844     23.2533
  9298.5000     30.7000      8.5467    -94.4000     18.7321     25.8055     40.4813     84.7111      2.3333     -0.0036      2.8978     22.8800
  9299.0000     31.8667      8.5467    -94.4444     18.8089     24.9479     37.6846     85.0222      2.3347      0.0023      2.7467     23.1867
  9299.5000     32.3000      8.5467    -94.5556     18.8089     24.6937     35.9498     85.2667      2.3300      0.0007      2.7467     23.9600
  9300.0000     34.2667      8.5467    -95.4444     18.9054     25.5164     36.9198     85.0667      2.3347      0.0024      2.7067     22.3600
  9300.5000     39.6333      8.5467    -95.7111     18.9829     26.9389     38.2278     85.4667      2.3338     -0.0047      2.8000     21.5333
  9301.0000     43.5000      8.5467    -94.2000     18.8282     28.2657     41.1509     85.0444      2.3407     -0.0004      2.6933     20.6000
  9301.5000     46.3000      8.5467    -94.0667     18.7512     28.2653     41.4028     85.0000      2.3453      0.0008      2.6267     21.5333
  9302.0000     40.7000      8.5467    -94.0222     18.7512     26.7740     41.1916     84.7778      2.3531      0.0040      2.7111     22.6000
  9302.5000     40.8333      8.5467    -94.0000     18.7512     25.7257     40.7721     83.9556      2.3622      0.0002      2.7289     23.7200
  9303.0000     39.8000      8.5467    -93.5333     18.7129     25.6992     42.0865     83.5556      2.3682     -0.0060      2.7467     24.4000
  9303.5000     41.6667      8.5422    -93.7333     18.5984     26.3654     41.9574     83.6222      2.3682     -0.0040      2.6889     23.7600
  9304.0000     43.2000      8.5333    -93.3778     18.4279     26.9656     41.4878     84.4667      2.3640      0.0002      2.6667     22.7200
  9304.5000     40.2667      8.5444    -93.2222     18.1101     27.1038     40.3987     83.8667      2.3531      0.0018      2.6667     21.6933
  9305.0000     37.0333      8.5467    -93.0889     17.8707     26.3926     39.1378     84.3555      2.3453     -0.0040      2.6267     21.3867
  9305.5000     34.6667      8.5467    -93.1111     17.8890     25.4117     36.1417     84.3111      2.3429     -0.0082      2.7244     22.1733
  9306.0000     34.6333      8.5578    -93.1778     18.0545     25.3336     29.9018     83.6000      2.3369     -0.0120      2.7333     23.2267
  9306.5000     36.3667      8.5644    -93.4444     18.0730     25.4636     36.9331     83.2889      2.3300     -0.0102      2.7244     23.6000
  9307.0000     36.4333      8.5667    -93.5111     18.0730     25.7782     37.9924     83.1778      2.3284     -0.0094      2.6711     23.1200
  9307.5000     35.6667      8.5667    -93.8000     18.1657     26.2307     37.7598     82.0222      2.3360     -0.0067      2.6889     21.9600
  9308.0000     35.0333      8.5667    -93.3333     18.1471     26.4462     38.6198     81.9778      2.3547     -0.0024      2.7467     22.4400
  9308.5000     34.8000      8.5667    -94.1111     18.0730     25.9371     39.1769     82.3555      2.3524     -0.0018      2.6622     22.3733
  9309.0000     32.5000      8.5711    -94.7556     18.2776     25.2562     38.2268     82.8667      2.3413      0.0000      2.5956     23.0800
  9309.5000     33.4000      8.5733    -93.1556     18.5034     25.1785     37.6827     83.9111      2.3302     -0.0021      2.5689     23.7733
  9310.0000     32.8000      8.5689    -93.0000     18.4845     25.4636     37.5287     84.4667      2.3284     -0.0040      2.6667     24.2533
  9310.5000     33.8000      8.5667    -93.0889     18.3714     25.5680     37.8372     85.2667      2.3340     -0.0023      2.6178     24.3067
  9311.0000     33.4333      8.5667    -93.7333     18.2402     25.3336     37.9924     85.3333      2.3287     -0.0057      2.5867     24.6000
  9311.5000     33.1667      8.5667    -93.2000     18.4467     25.4636     37.5671     85.3333      2.3364     -0.0010      2.5956     24.0133
