~Version Information
 VERS.                2.00:   CWLS log ASCII Standard -VERSION 2.00
 WRAP.                  NO:   One line per frame
~Well Information Block
#MNEM.UNIT              Data                Description
#--------- -------------------------------  -------------------------------
 STRT.F                         7800.0000:   Starting Depth
 STOP.F                        11520.0000:   Ending Depth
 STEP.F                            0.5000:   Level Spacing
 NULL.                          -999.2500:   Absent Value
 COMP.     BOGMC/PIU                     :   Company
 WELL.     KAILASTILA-3                  :   Well
 FLD .     KAILASTILA                    :   Field
 LOC .                                   :   Location
 PROV.                                   :   Province
 SRVC.                                   :   Service Company
 LIC .                                   :   License Number
 DATE.                                   :   Log Date
 UWI .                                   :   Unique Well ID
~Curve Information Block
#MNEM.UNIT       API Codes    Curve Description
#---------    -------------   -------------------------------
 DEPT.F        0   0  0  0:   Primary Index
 GR  .GAPI     0   0  0  0:   Gamma Ray
 CALI.IN       0   0  0  0:   Caliper
 SP  .MV       0   0  0  0:   Spontaneous Potential
 ILD .OHMM     0   0  0  0:   Deep Induction Standard Processed Resistivity
 SFLU.OHMM     0   0  0  0:   SFL Resistivity (Unaveraged)
 MSFL.OHMM     0   0  0  0:   Msfl Resistivity
 DT  .US/F     0   0  0  0:   Delta-T
 RHOB.G/C3     0   0  0  0:   Bulk Density
 DRHO.G/C3     0   0  0  0:   Delta Rho
 PEF .         0   0  0  0:   Photo-Electric Factor
 NPHI.PU       0   0  0  0:   Neutron Porosity
~Parameter Information Block
#MNEM.UNIT              Value             Description
#---------    -------------------------   -------------------------------
 BLI .          11565.000             :   Bottom Log Interval
 BS1 .             17.000             :   Bit Size 1
 BS2 .             12.250             :   Bit Size 2
 BS3 .               .000             :   Bit Size 3
 BSD1.           5102.000             :   Bit Size Depth 1
 BSD2.          11568.000             :   Bit Size Depth 2
 BSD3.               .000             :   Bit Size Depth 3
 CBD1.            632.000             :   Casing Bottom (Driller) 1
 CBD2.           5100.000             :   Casing Bottom (Driller) 2
 CBD3.               .000             :   Casing Bottom (Driller) 3
 CBL1.            634.000             :   Casing Bottom (Logger) 1
 CBL2.           5108.000             :   Casing Bottom (Logger) 2
 CBL3.               .000             :   Casing Bottom (Logger) 3
 CS1 .             13.375             :   Casing Size 1
 CS2 .              9.625             :   Casing Size 2
 CS3 .               .000             :   Casing Size 3
 CW1 .               .000             :   Casing Weight 1
 CW2 .               .000             :   Casing Weight 2
 CW3 .               .000             :   Casing Weight 3
 DAY .        28                      :   Date - Day
 DFD .              9.650             :   Drilling Fluid Density
 DFL .              5.200             :   Drilling Fluid Loss
 DFPH.              9.000             :   Drilling Fluid Ph
 DFT .        GEL-BENEX               :   Drilling Fluid Type
 DFV .             48.000             :   Drilling Fluid Viscosity
 DMF .        DF                      :   Drilling Measured From
 EDF .             72.000             :   Elevation Of Derrick Floor
 EGL .               .000             :   Elevation Of Ground Level
 EKB .             73.000             :   Elevation Of Kelly Bushing
 ENGI.        LEBIOKI#                :   Engineer'S Name
 EPD .               .000             :   Elevation Of Perm. Datum
 LATI.        864,663 Y N             :   Latitude
 LCC .        440                     :   Logging Company Code
 LMF .        DF                      :   Log Measured From
 LONG.        3,223,823 Y E           :   Longitude
 LUL .        PBG                     :   Logging Unit Location
 LUN .        737                     :   Logging Unit Number
 MCSS.        EMT                     :   Mud Cake Sample Source
 MCST.             70.000             :   Mud Cake Sample Temperature
 MFSS.        EMT                     :   Mud Filtrate Sample Source
 MFST.             70.000             :   Mud Filtrate Sample Temperature
 MONT.        12                      :   Date - Month
 MRT .            154.000             :   Maximum Recorded Temperature
 MSS .        FLOWLINE                :   Mud Sample Source
 MST .             68.000             :   Mud Sample Temperature
 NATI.        BANGLADESH              :   Nation
 PDAT.        MSL                     :   Permanent Datum
 R1  .        SELECTED CURVES OVER SELECTED INTERVALS AS PER PETROBANGLA:   Remark Line 1
 R2  .        SPECIFICATIONS DETAILED IN TABLE 6.:   Remark Line 2
 R3  .        DATA TAKEN FROM TAPE 183. THIS TAPE IS A SCHLUMBERGER:   Remark Line 3
 R4  .        EDIT TAPE.              :   Remark Line 4
 R5  .        MSFL TAPE DATA OFFSET FROM H/C LOG, HOWEVER ALL DIGITAL:   Remark Line 5
 R6  .        SOURCES FOUND TO BE IDENTICAL ON SLB EDIT TAPES, CURVE:   Remark Line 6
 R7  .        OUTPUT AS PER EDIT TAPES.:   Remark Line 7
 RMCS.              2.140             :   Resistivity Of Mud Cake Sample
 RMFS.              5.350             :   Resistivity Of Mud Filtrate Sample
 RMS .              3.480             :   Resistivity Of Mud Sample
 RUN .        2                       :   Run Number
 STAT.        BANGLADESH              :   State Or Province
 TCS .        14:00/28                :   Time Circulation Stopped
 TDD .          11568.000             :   Total Depth - Driller
 TDL .          11572.000             :   Total Depth - Logger
 TLAB.        23:29/28                :   Time Logger At Bottom
 TLI .           5108.000             :   Top Log Interval
 TOOL.        COMPOSITE               :   Epl Of All Possible Sensors
 WITN.        ELAHI                   :   Witness' Name
 YEAR.        88                      :   Date - Year
#  Curve Data
~A   DEPT        GR          CALI        SP          ILD         SFLU        MSFL        DT          RHOB        DRHO        PEF         NPHI
# ...
 10992.0000     51.8000      8.5133    -79.8000     10.2625     22.2461     37.8759     81.2667      2.3958     -0.0040      3.2800     19.1333
 10992.5000     52.8667      8.5133    -79.4444     10.0135     22.0195     37.5287     80.1333      2.4020      0.0000      3.3600     19.1867
 10993.0000     54.0000      8.5133    -79.0889      9.7507     21.4635     37.4520     79.2667      2.4076     -0.0017      3.2756     19.5200
 10993.5000     53.8000      8.5133    -79.0667      9.5141     20.6237     36.5063     78.7556      2.4098      0.0002      3.1600     19.7067
 10994.0000     53.7667      8.5133    -78.7778      9.2264     19.9837     35.9867     78.7778      2.4104      0.0008      3.2089     19.8133
 10994.5000     51.4333      8.5133    -78.7333      8.9933     19.3162     35.6202     79.1778      2.4167      0.0077      3.2133     20.2000
 10995.0000     47.5333      8.5133    -78.6222      8.7572     19.0219     36.2084     79.2000      2.4133      0.0060      3.2844     20.3333
 10995.5000     43.9000      8.5133    -78.4000      8.5186     18.6175     36.5433     79.1555      2.4042      0.0024      3.3467     20.8000
 10996.0000     45.9000      8.5133    -78.6445      8.3802     18.1658     35.4025     78.6444      2.4024     -0.0007      3.2356     20.7733
 10996.5000     49.5667      8.5244    -78.8667      8.2272     17.8342     34.8274     78.2444      2.4084      0.0022      3.2489     20.5867
 10997.0000     50.6000      8.5267    -78.8000      8.0276     17.5625     34.2968     78.0889      2.4200      0.0073      3.2756     20.4133
 10997.5000     51.5000      8.5444    -78.9778      7.8811     17.3304     34.0171     77.9778      2.4118      0.0053      3.2800     20.3333
 10998.0000     52.1333      8.5578    -79.2444      7.7611     17.2243     34.7205     77.2889      2.4040      0.0016      3.3600     21.0533
 10998.5000     52.8000      8.5644    -79.3778      7.7056     17.0141     34.5787     76.5333      2.4007      0.0013      3.3200     21.4000
 10999.0000     52.0000      8.5711    -77.8667      7.6977     16.6183     33.9128     76.9111      2.4047      0.0003      3.4133     21.6533
 10999.5000     47.9000      8.5867    -77.7778      7.7372     16.3652     34.7560     76.9111      2.3976      0.0008      3.3067     20.6400
 11000.0000     48.6000      8.5800    -78.0667      7.7849     16.3316     33.4989     77.5333      2.3900     -0.0040      3.1378     20.9333
 11000.5000     46.3000      8.5911    -77.8889      7.8973     16.2983     33.7743     78.0667      2.3949     -0.0022      3.1200     21.0400
 11001.0000     47.5000      8.6044    -77.7556      8.1102     16.0993     33.9475     77.6667      2.4129      0.0001      3.2000     21.6000
 11001.5000     46.2667      8.6111    -77.8222      8.3375     15.9354     32.4202     74.5556      2.4267      0.0006      3.3867     20.0667
 11002.0000     45.1000      8.6133    -78.4667      8.5273     16.4329     31.6010     72.0000      2.4569      0.0022      3.6933     17.3733
 11002.5000     46.5667      8.6378    -78.9778      8.6149     18.0372     30.7081     71.8444      2.4953      0.0098      3.5867     15.0400
 11003.0000     46.7667      8.6311    -79.0000      8.7214     19.6427     33.0928     72.1333      2.4887      0.0096      3.4933     14.7067
 11003.5000     48.2667      8.5356    -78.8889      8.7751     20.8358     36.0997     75.2222      2.4464      0.0052      3.3022     16.9333
 11004.0000     50.7000      8.5267    -78.4667      8.7661     19.0823     36.8820     78.7778      2.4042     -0.0030      3.1467     19.3600
 11004.5000     49.8000      8.5311    -77.8000      8.7125     16.7732     31.3184     79.5333      2.3953     -0.0021      3.2400     20.8667
 11005.0000     50.3333      8.5333    -78.0444      8.6061     16.2650     30.7395     78.6667      2.4069      0.0003      3.2222     21.5200
 11005.5000     47.5333      8.5511    -78.2000      8.4060     16.2816     31.3113     78.6667      2.4098     -0.0020      3.3600     20.7467
 11006.0000     47.2000      8.5644    -79.3333      8.1853     16.2816     32.3864     78.6667      2.4127      0.0000      3.1556     19.7333
 11006.5000     44.4000      8.5711    -78.8667      7.9785     16.3651     31.8931     78.6667      2.4060     -0.0023      3.0667     19.2000
 11007.0000     44.5333      8.6156    -78.0000      7.8089     16.5165     32.3204     78.6222      2.4093      0.0000      2.9467     19.3067
 11007.5000     43.7667      8.6444    -78.2222      7.7056     16.5334     32.5859     78.2667      2.4047     -0.0039      2.9867     20.4400
 11008.0000     46.2000      8.6889    -78.9333      7.6741     16.2817     32.0568     77.5333      2.4093     -0.0049      2.9956     20.8800
 11008.5000     46.4667      8.7422    -78.5778      7.6741     15.7573     31.5361     77.6222      2.4067     -0.0063      3.1156     20.0933
 11009.0000     47.8333      8.7889    -78.0444      7.6899     15.2809     31.6007     77.1333      2.4133     -0.0037      3.2622     19.1867
 11009.5000     48.9333      8.8333    -77.7556      7.6977     14.8036     30.9288     77.4444      2.4100      0.0008      3.4578     19.2400
 11010.0000     51.0000      8.8889    -77.7333      7.7372     14.7279     31.4394     77.4667      2.4118      0.0062      3.5911     20.1333
 11010.5000     54.8000      8.9178    -77.3333      7.7849     14.4889     29.9029     77.3778      2.4138      0.0088      3.5867     21.0667
 11011.0000     57.1000      8.9200    -78.3111      7.8811     14.0222     28.4695     76.9333      2.4169      0.0101      3.5778     21.7467
 11011.5000     55.4333      8.9200    -78.7556      7.9296     13.5010     27.0488     77.7333      2.4164      0.0040      3.3778     21.7733
 11012.0000     53.0333      8.9200    -79.2000      8.0030     13.4183     26.8279     77.7111      2.4087      0.0067      3.3111     21.2667
 11012.5000     51.8000      8.9200    -78.9111      8.0770     13.6398     26.1234     77.2667      2.4084      0.0077      3.2267     20.6000
 11013.0000     53.8000      8.9200    -78.6222      8.0853     13.9790     27.4675     78.4000      2.4164      0.0177      3.3733     21.9200
 11013.5000     51.2333      8.9200    -78.2000      8.1268     14.3560     27.6643     78.1555      2.4196      0.0129      3.4444     21.4400
 11014.0000     48.3667      8.9244    -78.6889      8.1351     14.7886     27.8634     78.0000      2.4067      0.0087      3.4800     21.5733
 11014.5000     44.9000      8.9444    -76.8667      8.1102     15.3907     29.7811     78.4000      2.4040      0.0060      3.4489     21.0000
 11015.0000     49.0000      8.9578    -75.7111      8.1518     15.3905     31.3110     77.3333      2.4098      0.0038      3.5511     21.7600
 11015.5000     52.7667      9.0133    -74.9778      8.2020     14.6982     30.3959     76.1333      2.4369      0.0271      3.6178     20.4133
 11016.0000     54.0333      9.1489    -73.4889      8.3033     14.1807     28.9088     72.9333      2.4451      0.0537      3.6489     16.1733
 11016.5000     50.5333      9.6200    -70.6667      8.3630     15.0809     28.9132     68.3778      2.4740      0.0900      3.6622     12.3733
 11017.0000     49.8667     10.4311    -69.4667      8.2948     18.6427     20.8530     64.2222      2.4833      0.0750      3.7067     11.3467
 11017.5000     48.7333     10.9667    -70.2444      8.2864     21.8623     16.6353     63.1111      2.4849      0.0436      3.5822     14.7467
 11018.0000     47.7333      9.6022    -72.5556      8.2694     20.9001     19.0837     65.6667      2.4549      0.0146      3.3067     18.0133
 11018.5000     46.8000      8.7733    -74.0000      8.2441     17.4967     25.9559     71.0000      2.4280      0.0047      3.1422     19.9067
 11019.0000     47.5333      8.7089    -75.2000      8.1936     14.1807     30.7395     75.9778      2.4127      0.0026      3.1556     22.2400
 11019.5000     48.0000      8.6489    -76.2222      8.0771     14.3706     29.8101     77.4222      2.4056     -0.0003      3.2578     22.0400
