~Version Information
 VERS.                2.00:   CWLS log ASCII Standard -VERSION 2.00
 WRAP.                  NO:   One line per frame
~Well Information Block
#MNEM.UNIT              Data                Description
#--------- -------------------------------  -------------------------------
 STRT.F                         7800.0000:   Starting Depth
 STOP.F                        11520.0000:   Ending Depth
 STEP.F                            0.5000:   Level Spacing
 NULL.                          -999.2500:   Absent Value
 COMP.     BOGMC/PIU                     :   Company
 WELL.     KAILASTILA-3                  :   Well
 FLD .     KAILASTILA                    :   Field
 LOC .                                   :   Location
 PROV.                                   :   Province
 SRVC.                                   :   Service Company
 LIC .                                   :   License Number
 DATE.                                   :   Log Date
 UWI .                                   :   Unique Well ID
~Curve Information Block
#MNEM.UNIT       API Codes    Curve Description
#---------    -------------   -------------------------------
 DEPT.F        0   0  0  0:   Primary Index
 GR  .GAPI     0   0  0  0:   Gamma Ray
 CALI.IN       0   0  0  0:   Caliper
 SP  .MV       0   0  0  0:   Spontaneous Potential
 ILD .OHMM     0   0  0  0:   Deep Induction Standard Processed Resistivity
 SFLU.OHMM     0   0  0  0:   SFL Resistivity (Unaveraged)
 MSFL.OHMM     0   0  0  0:   Msfl Resistivity
 DT  .US/F     0   0  0  0:   Delta-T
 RHOB.G/C3     0   0  0  0:   Bulk Density
 DRHO.G/C3     0   0  0  0:   Delta Rho
 PEF .         0   0  0  0:   Photo-Electric Factor
 NPHI.PU       0   0  0  0:   Neutron Porosity
~Parameter Information Block
#MNEM.UNIT              Value             Description
#---------    -------------------------   -------------------------------
 BLI .          11565.000             :   Bottom Log Interval
 BS1 .             17.000             :   Bit Size 1
 BS2 .             12.250             :   Bit Size 2
 BS3 .               .000             :   Bit Size 3
 BSD1.           5102.000             :   Bit Size Depth 1
 BSD2.          11568.000             :   Bit Size Depth 2
 BSD3.               .000             :   Bit Size Depth 3
 CBD1.            632.000             :   Casing Bottom (Driller) 1
 CBD2.           5100.000             :   Casing Bottom (Driller) 2
 CBD3.               .000             :   Casing Bottom (Driller) 3
 CBL1.            634.000             :   Casing Bottom (Logger) 1
 CBL2.           5108.000             :   Casing Bottom (Logger) 2
 CBL3.               .000             :   Casing Bottom (Logger) 3
 CS1 .             13.375             :   Casing Size 1
 CS2 .              9.625             :   Casing Size 2
 CS3 .               .000             :   Casing Size 3
 CW1 .               .000             :   Casing Weight 1
 CW2 .               .000             :   Casing Weight 2
 CW3 .               .000             :   Casing Weight 3
 DAY .        28                      :   Date - Day
 DFD .              9.650             :   Drilling Fluid Density
 DFL .              5.200             :   Drilling Fluid Loss
 DFPH.              9.000             :   Drilling Fluid Ph
 DFT .        GEL-BENEX               :   Drilling Fluid Type
 DFV .             48.000             :   Drilling Fluid Viscosity
 DMF .        DF                      :   Drilling Measured From
 EDF .             72.000             :   Elevation Of Derrick Floor
 EGL .               .000             :   Elevation Of Ground Level
 EKB .             73.000             :   Elevation Of Kelly Bushing
 ENGI.        LEBIOKI#                :   Engineer'S Name
 EPD .               .000             :   Elevation Of Perm. Datum
 LATI.        864,663 Y N             :   Latitude
 LCC .        440                     :   Logging Company Code
 LMF .        DF                      :   Log Measured From
 LONG.        3,223,823 Y E           :   Longitude
 LUL .        PBG                     :   Logging Unit Location
 LUN .        737                     :   Logging Unit Number
 MCSS.        EMT                     :   Mud Cake Sample Source
 MCST.             70.000             :   Mud Cake Sample Temperature
 MFSS.        EMT                     :   Mud Filtrate Sample Source
 MFST.             70.000             :   Mud Filtrate Sample Temperature
 MONT.        12                      :   Date - Month
 MRT .            154.000             :   Maximum Recorded Temperature
 MSS .        FLOWLINE                :   Mud Sample Source
 MST .             68.000             :   Mud Sample Temperature
 NATI.        BANGLADESH              :   Nation
 PDAT.        MSL                     :   Permanent Datum
 R1  .        SELECTED CURVES OVER SELECTED INTERVALS AS PER PETROBANGLA:   Remark Line 1
 R2  .        SPECIFICATIONS DETAILED IN TABLE 6.:   Remark Line 2
 R3  .        DATA TAKEN FROM TAPE 183. THIS TAPE IS A SCHLUMBERGER:   Remark Line 3
 R4  .        EDIT TAPE.              :   Remark Line 4
 R5  .        MSFL TAPE DATA OFFSET FROM H/C LOG, HOWEVER ALL DIGITAL:   Remark Line 5
 R6  .        SOURCES FOUND TO BE IDENTICAL ON SLB EDIT TAPES, CURVE:   Remark Line 6
 R7  .        OUTPUT AS PER EDIT TAPES.:   Remark Line 7
 RMCS.              2.140             :   Resistivity Of Mud Cake Sample
 RMFS.              5.350             :   Resistivity Of Mud Filtrate Sample
 RMS .              3.480             :   Resistivity Of Mud Sample
 RUN .        2                       :   Run Number
 STAT.        BANGLADESH              :   State Or Province
 TCS .        14:00/28                :   Time Circulation Stopped
 TDD .          11568.000             :   Total Depth - Driller
 TDL .          11572.000             :   Total Depth - Logger
 TLAB.        23:29/28                :   Time Logger At Bottom
 TLI .           5108.000             :   Top Log Interval
 TOOL.        COMPOSITE               :   Epl Of All Possible Sensors
 WITN.        ELAHI                   :   Witness' Name
 YEAR.        88                      :   Date - Year
#  Curve Data
~A   DEPT        GR          CALI        SP          ILD         SFLU        MSFL        DT          RHOB        DRHO        PEF         NPHI
# ...
  8304.0000     37.7000      8.5222   -106.8667     16.7207     22.2005     32.1882     92.7778      2.2740     -0.0063      2.7378     24.7867
  8304.5000     36.0667      8.5200   -104.9111     16.6864     22.2460     32.5194     92.7556      2.2820      0.0000      2.6400     26.4800
  8305.0000     35.0000      8.5200   -104.6667     16.7377     22.5209     33.7055     92.1333      2.2793     -0.0037      2.6800     28.4667
  8305.5000     35.8333      8.5200   -104.9111     16.6864     23.0339     33.8781     91.6444      2.2880     -0.0044      2.6800     28.8400
  8306.0000     33.4000      8.5200   -105.4000     16.7206     23.5823     34.2266     91.4222      2.2847     -0.0073      2.6933     28.5467
  8306.5000     34.1333      8.5156   -104.9556     16.7377     23.6064     34.2266     91.2222      2.2860     -0.0052      2.6800     28.3733
  8307.0000     35.2000      8.5133   -105.0000     16.6353     23.7761     34.4022     91.2889      2.2847     -0.0040      2.7600     28.1867
  8307.5000     38.6000      8.5178   -104.8445     16.7720     22.9633     35.0776     92.0000      2.2880     -0.0040      2.6622     27.8667
  8308.0000     38.7667      8.5200   -104.0667     16.8236     22.6364     34.2968     92.2889      2.2844     -0.0028      2.5556     27.5200
  8308.5000     37.5000      8.5200   -104.2667     16.8753     22.5439     33.5676     92.9556      2.2809     -0.0023      2.4667     27.0533
  8309.0000     34.6333      8.5200   -104.1111     16.8581     22.7992     33.1917     92.9333      2.2811     -0.0039      2.5378     28.5733
  8309.5000     34.4333      8.5200   -104.6667     16.7549     23.1994     33.9131     92.9556      2.2867     -0.0038      2.6178     29.1067
  8310.0000     32.7333      8.5200   -104.7333     16.6864     23.6307     34.7917     92.3778      2.2922     -0.0031      2.6267     30.9600
  8310.5000     30.7000      8.5200   -104.6667     16.7206     24.0453     35.4747     92.3778      2.2927     -0.0016      2.6178     30.0000
  8311.0000     29.7000      8.5156   -105.0889     16.8753     23.8493     35.5110     92.6444      2.2936      0.0027      2.5911     28.6400
  8311.5000     30.8333      8.5133   -105.2000     16.8926     23.5101     35.7664     92.7333      2.2862      0.0024      2.5778     26.0267
  8312.0000     33.1000      8.5178   -105.2222     17.0839     23.0337     33.7751     92.7333      2.2756      0.0002      2.5378     25.8933
  8312.5000     32.5000      8.5200   -106.5333     17.4908     23.4140     33.6707     92.7778      2.2698     -0.0020      2.5111     27.4533
  8313.0000     32.8667      8.5200   -105.8445     17.8342     23.6548     34.5788     92.9111      2.2698     -0.0011      2.4978     27.4667
  8313.5000     33.1000      8.5200   -104.4667     17.8159     23.9227     34.5787     93.1333      2.2767     -0.0002      2.4444     25.7333
  8314.0000     32.7000      8.5267   -104.2667     17.7431     24.5679     33.8088     93.0222      2.2753     -0.0037      2.4622     24.7600
  8314.5000     33.8000      8.5133   -104.5556     17.7795     25.1785     34.4728     93.0000      2.2800     -0.0028      2.5022     25.7467
  8315.0000     34.1667      8.5133   -105.1333     17.7613     24.9223     34.6495     92.5778      2.2753     -0.0017      2.5644     26.9733
  8315.5000     37.4000      8.5133   -104.4000     17.7069     23.8743     33.8782     92.3555      2.2793      0.0040      2.6711     27.2000
  8316.0000     34.5000      8.5133   -104.2222     17.4371     22.6141     33.0900     92.3778      2.2733      0.0022      2.6889     27.1867
  8316.5000     35.9000      8.5133   -103.9111     17.3837     21.9296     34.4374     92.4000      2.2664     -0.0002      2.7733     27.6667
  8317.0000     35.2333      8.5178   -103.8667     16.9793     22.4751     32.4860     92.1111      2.2533     -0.0080      2.7378     27.9600
  8317.5000     38.9000      8.5156   -103.5333     16.7207     22.9162     33.0225     91.9333      2.2569     -0.0099      2.7333     27.1200
  8318.0000     36.5667      8.5133   -103.9333     16.4155     22.9161     33.7052     92.1778      2.2613     -0.0099      2.7556     25.8933
  8318.5000     34.7667      8.5178   -103.6667     16.3484     22.7759     33.4989     92.4667      2.2687     -0.0136      2.8178     25.0800
  8319.0000     34.8667      8.5200   -104.0444     16.3316     22.6133     33.8088     92.3333      2.2633     -0.0182      2.9333     26.0400
  8319.5000     41.0667      8.5200   -104.1111     16.5165     22.9867     33.4989     92.6222      2.2667     -0.0191      2.8844     25.8400
  8320.0000     44.3000      8.5200   -104.3333     16.4997     23.1045     33.7743     92.6667      2.2640     -0.0147      2.7644     26.1600
  8320.5000     43.3000      8.5244   -104.1333     16.4322     22.7060     33.8781     92.6222      2.2727     -0.0077      2.6000     25.8800
  8321.0000     39.8000      8.5267   -104.9556     16.5673     22.7992     34.6495     92.0667      2.2696     -0.0097      2.6978     26.6400
  8321.5000     36.9333      8.5267   -105.8667     16.7206     23.1283     34.0171     91.5778      2.2689     -0.0142      2.7289     26.4000
  8322.0000     35.9000      8.5267   -103.8667     16.7892     23.2231     36.1712     91.3555      2.2660     -0.0167      2.8133     27.2000
  8322.5000     35.7000      8.5311   -103.4667     16.5843     23.2468     34.3318     91.3333      2.2709     -0.0144      2.7067     26.5200
  8323.0000     38.5000      8.5333   -104.0000     16.7720     23.6066     34.7917     91.1778      2.2749     -0.0089      2.7422     25.8933
  8323.5000     38.0333      8.5333   -104.4667     16.8236     24.2680     35.4386     91.7333      2.2771     -0.0081      2.8000     24.3200
  8324.0000     40.3667      8.5333   -103.8667     16.8408     24.3424     35.9498     91.2889      2.2769     -0.0072      2.7511     25.0667
  8324.5000     40.8000      8.5333   -103.8445     16.7377     24.2926     35.0418     91.3778      2.2753     -0.0103      2.6978     27.0133
  8325.0000     40.7000      8.5400   -103.9333     16.8236     23.6790     37.4136     91.4667      2.2782     -0.0087      2.6533     27.7600
  8325.5000     40.9000      8.5200   -103.6889     16.8064     23.8248     35.6941     91.4000      2.2804     -0.0117      2.6622     28.4267
  8326.0000     40.9000      8.5156   -103.4667     16.7549     23.2945     35.3661     91.5778      2.2811     -0.0087      2.7600     28.5067
  8326.5000     43.5000      8.5133   -103.5778     16.6353     22.8694     34.4377     91.7111      2.2853     -0.0103      2.6756     28.7333
  8327.0000     41.9000      8.5133   -103.9556     16.6353     22.6828     34.0519     91.7333      2.2756     -0.0090      2.5867     27.6533
  8327.5000     40.3000      8.5133   -104.2000     16.6353     23.1994     33.7052     91.6222      2.2733     -0.0123      2.4267     25.6133
  8328.0000     38.0667      8.5133   -103.8000     16.6013     23.4619     33.7743     91.4667      2.2738     -0.0111      2.3956     25.3867
  8328.5000     35.9000      8.5133   -104.3333     16.4828     23.0573     34.3671     91.4667      2.2822     -0.0102      2.5200     25.9867
  8329.0000     35.5000      8.5133   -104.4667     16.6694     23.0337     34.6141     91.2222      2.2873     -0.0067      2.6311     26.1067
  8329.5000     36.3667      8.5178   -104.6445     16.7377     23.4860     35.3660     91.2000      2.2784     -0.0130      2.7111     26.2533
  8330.0000     38.5667      8.5200   -106.2000     16.7035     23.7518     35.2215     90.8444      2.2691     -0.0166      2.7200     26.6800
  8330.5000     39.9000      8.5200   -105.0667     16.5334     23.4860     34.4023     90.5111      2.2627     -0.0213      2.7422     26.7867
  8331.0000     39.7667      8.5200   -104.0889     16.5673     23.1993     33.6019     90.0444      2.2724     -0.0180      2.8178     26.8533
  8331.5000     38.9000      8.5200   -104.0889     16.6694     23.2231     34.0520     90.0444      2.2729     -0.0177      2.8756     26.3200
