~Version Information
 VERS.                2.00:   CWLS log ASCII Standard -VERSION 2.00
 WRAP.                  NO:   One line per frame
~Well Information Block
#MNEM.UNIT              Data                Description
#--------- -------------------------------  -------------------------------
 STRT.F                         7800.0000:   Starting Depth
 STOP.F                        11520.0000:   Ending Depth
 STEP.F                            0.5000:   Level Spacing
 NULL.                          -999.2500:   Absent Value
 COMP.     BOGMC/PIU                     :   Company
 WELL.     KAILASTILA-3                  :   Well
 FLD .     KAILASTILA                    :   Field
 LOC .                                   :   Location
 PROV.                                   :   Province
 SRVC.                                   :   Service Company
 LIC .                                   :   License Number
 DATE.                                   :   Log Date
 UWI .                                   :   Unique Well ID
~Curve Information Block
#MNEM.UNIT       API Codes    Curve Description
#---------    -------------   -------------------------------
 DEPT.F        0   0  0  0:   Primary Index
 GR  .GAPI     0   0  0  0:   Gamma Ray
 CALI.IN       0   0  0  0:   Caliper
 SP  .MV       0   0  0  0:   Spontaneous Potential
 ILD .OHMM     0   0  0  0:   Deep Induction Standard Processed Resistivity
 SFLU.OHMM     0   0  0  0:   SFL Resistivity (Unaveraged)
 MSFL.OHMM     0   0  0  0:   Msfl Resistivity
 DT  .US/F     0   0  0  0:   Delta-T
 RHOB.G/C3     0   0  0  0:   Bulk Density
 DRHO.G/C3     0   0  0  0:   Delta Rho
 PEF .         0   0  0  0:   Photo-Electric Factor
 NPHI.PU       0   0  0  0:   Neutron Porosity
~Parameter Information Block
#MNEM.UNIT              Value             Description
#---------    -------------------------   -------------------------------
 BLI .          11565.000             :   Bottom Log Interval
 BS1 .             17.000             :   Bit Size 1
 BS2 .             12.250             :   Bit Size 2
 BS3 .               .000             :   Bit Size 3
 BSD1.           5102.000             :   Bit Size Depth 1
 BSD2.          11568.000             :   Bit Size Depth 2
 BSD3.               .000             :   Bit Size Depth 3
 CBD1.            632.000             :   Casing Bottom (Driller) 1
 CBD2.           5100.000             :   Casing Bottom (Driller) 2
 CBD3.               .000             :   Casing Bottom (Driller) 3
 CBL1.            634.000             :   Casing Bottom (Logger) 1
 CBL2.           5108.000             :   Casing Bottom (Logger) 2
 CBL3.               .000             :   Casing Bottom (Logger) 3
 CS1 .             13.375             :   Casing Size 1
 CS2 .              9.625             :   Casing Size 2
 CS3 .               .000             :   Casing Size 3
 CW1 .               .000             :   Casing Weight 1
 CW2 .               .000             :   Casing Weight 2
 CW3 .               .000             :   Casing Weight 3
 DAY .        28                      :   Date - Day
 DFD .              9.650             :   Drilling Fluid Density
 DFL .              5.200             :   Drilling Fluid Loss
 DFPH.              9.000             :   Drilling Fluid Ph
 DFT .        GEL-BENEX               :   Drilling Fluid Type
 DFV .             48.000             :   Drilling Fluid Viscosity
 DMF .        DF                      :   Drilling Measured From
 EDF .             72.000             :   Elevation Of Derrick Floor
 EGL .               .000             :   Elevation Of Ground Level
 EKB .             73.000             :   Elevation Of Kelly Bushing
 ENGI.        LEBIOKI#                :   Engineer'S Name
 EPD .               .000             :   Elevation Of Perm. Datum
 LATI.        864,663 Y N             :   Latitude
 LCC .        440                     :   Logging Company Code
 LMF .        DF                      :   Log Measured From
 LONG.        3,223,823 Y E           :   Longitude
 LUL .        PBG                     :   Logging Unit Location
 LUN .        737                     :   Logging Unit Number
 MCSS.        EMT                     :   Mud Cake Sample Source
 MCST.             70.000             :   Mud Cake Sample Temperature
 MFSS.        EMT                     :   Mud Filtrate Sample Source
 MFST.             70.000             :   Mud Filtrate Sample Temperature
 MONT.        12                      :   Date - Month
 MRT .            154.000             :   Maximum Recorded Temperature
 MSS .        FLOWLINE                :   Mud Sample Source
 MST .             68.000             :   Mud Sample Temperature
 NATI.        BANGLADESH              :   Nation
 PDAT.        MSL                     :   Permanent Datum
 R1  .        SELECTED CURVES OVER SELECTED INTERVALS AS PER PETROBANGLA:   Remark Line 1
 R2  .        SPECIFICATIONS DETAILED IN TABLE 6.:   Remark Line 2
 R3  .        DATA TAKEN FROM TAPE 183. THIS TAPE IS A SCHLUMBERGER:   Remark Line 3
 R4  .        EDIT TAPE.              :   Remark Line 4
 R5  .        MSFL TAPE DATA OFFSET FROM H/C LOG, HOWEVER ALL DIGITAL:   Remark Line 5
 R6  .        SOURCES FOUND TO BE IDENTICAL ON SLB EDIT TAPES, CURVE:   Remark Line 6
 R7  .        OUTPUT AS PER EDIT TAPES.:   Remark Line 7
 RMCS.              2.140             :   Resistivity Of Mud Cake Sample
 RMFS.              5.350             :   Resistivity Of Mud Filtrate Sample
 RMS .              3.480             :   Resistivity Of Mud Sample
 RUN .        2                       :   Run Number
 STAT.        BANGLADESH              :   State Or Province
 TCS .        14:00/28                :   Time Circulation Stopped
 TDD .          11568.000             :   Total Depth - Driller
 TDL .          11572.000             :   Total Depth - Logger
 TLAB.        23:29/28                :   Time Logger At Bottom
 TLI .           5108.000             :   Top Log Interval
 TOOL.        COMPOSITE               :   Epl Of All Possible Sensors
 WITN.        ELAHI                   :   Witness' Name
 YEAR.        88                      :   Date - Year
#  Curve Data
~A   DEPT        GR          CALI        SP          ILD         SFLU        MSFL        DT          RHOB        DRHO        PEF         NPHI
# ...
  9536.0000     48.0333      8.8267    -92.3333     11.0472     18.0176     23.8983     86.3333      2.3742      0.0047      2.8889     21.4800
  9536.5000     46.0000      8.8267    -90.5778     11.2988     17.1554     24.3424     85.2000      2.3991      0.0064      3.1067     21.7067
  9537.0000     48.7333      8.8222    -90.3778     11.5916     14.9584     23.2488     85.9333      2.4200      0.0088      3.3289     22.7333
  9537.5000     49.6667      8.8200    -91.1333     11.7709     13.8797     20.3536     86.4889      2.4084      0.0096      3.4044     23.1200
  9538.0000     49.4000      8.8244    -92.9111     11.7950     13.9078     19.6777     88.2667      2.3804      0.0114      3.4044     22.3333
  9538.5000     47.5333      8.8267    -93.6000     11.7709     15.3767     21.8408     89.8667      2.3524      0.0117      3.3822     21.9200
  9539.0000     45.7333      8.8222    -94.2222     11.6988     16.7046     23.2231     89.9556      2.3398      0.0100      3.2444     21.7200
  9539.5000     45.6000      8.8200    -94.2667     11.5560     17.7617     23.6066     87.7333      2.3364      0.0039      3.1067     22.0400
  9540.0000     45.7667      8.8267    -93.9333     11.5679     17.8891     24.3426     85.4000      2.3522      0.0017      3.0533     21.8667
  9540.5000     46.0000      8.8267    -93.2000     11.8313     16.8423     24.4926     86.9556      2.3820      0.0061      3.2000     21.6133
  9541.0000     48.5000      8.8311    -93.0444     12.1379     15.0033     22.6388     88.2444      2.4087      0.0106      3.1067     22.9867
  9541.5000     50.5000      8.8333    -93.7333     12.3635     14.5780     20.9426     90.0000      2.4007      0.0130      2.9778     23.2267
  9542.0000     48.5000      8.8333    -94.1556     12.6710     15.4230     23.1559     91.5333      2.3836      0.0093      2.7733     24.2400
  9542.5000     44.9667      8.8444    -94.4444     12.6969     16.8592     26.0994     89.8444      2.3802      0.0081      2.7911     23.3067
  9543.0000     42.4000      8.8844    -94.2667     12.9329     17.6168     26.4192     86.6000      2.4038     -0.0011      3.0044     22.1067
  9543.5000     42.2667      9.0511    -93.2000     12.7359     20.0305     29.1755     82.7556      2.4507     -0.0046      3.2000     19.3200
  9544.0000     42.9333      9.3067    -93.4000     12.8144     25.2618     58.9336     81.4444      2.4787     -0.0097      3.1422     18.8667
  9544.5000     43.0667      9.1022    -93.1111     12.6063     25.6466     52.5621     84.7556      2.4649     -0.0029      3.0267     20.0267
  9545.0000     43.5667      8.8000    -92.4000     12.5548     21.0114     26.2847     89.3778      2.4129     -0.0024      2.9200     23.7200
  9545.5000     46.6000      8.8244    -92.6889     12.4015     15.9882     21.9970     93.3333      2.3738      0.0017      3.0533     23.3200
  9546.0000     45.6667      8.8378    -93.2667     12.1503     15.3590     23.5835     94.3111      2.3547     -0.0034      3.1511     23.1333
  9546.5000     45.7000      8.8689    -92.8889     11.9285     15.5011     24.1192     91.1555      2.3691     -0.0058      3.5333     22.9867
  9547.0000     45.1000      8.9356    -91.6889     11.7950     15.1716     23.7518     84.2889      2.4211     -0.0062      3.7689     20.8400
  9547.5000     43.7667      9.1933    -90.0000     11.7709     15.8219     25.1408     74.7333      2.4969      0.0017      3.8578     16.5467
  9548.0000     42.1333      9.9311    -87.8000     11.6035     20.9849     44.5731     69.3333      2.5500      0.0118      3.6000     10.6400
  9548.5000     35.8000     10.2400    -86.8667     11.3567     34.6959     75.5724     71.0667      2.5291      0.0131      3.3689     11.3067
  9549.0000     37.5667      9.4133    -88.0444     11.3335     36.6622     69.8409     76.5333      2.4720      0.0098      3.2889     17.0400
  9549.5000     39.7333      8.8178    -89.7111     11.3103     24.4722     35.9385     84.9556      2.4178      0.0067      3.2222     21.3333
  9550.0000     45.3000      8.7778    -90.2667     11.2411     18.7232     25.0437     90.0222      2.3773      0.0039      3.1067     23.0000
  9550.5000     44.6000      8.7800    -91.1778     10.9349     15.2188     23.6064     90.3111      2.3722      0.0034      3.0667     22.0000
  9551.0000     45.3000      8.7800    -91.6000     10.6259     15.0788     25.1013     89.2667      2.3940      0.0007      3.1600     22.0400
  9551.5000     46.5000      8.7911    -90.7556     10.4213     13.6842     23.9965     87.8222      2.4227     -0.0023      3.3689     22.7467
  9552.0000     46.5000      8.7978    -90.8889     10.1997     12.0278     20.7777     86.8000      2.4151     -0.0054      3.4000     23.5333
  9552.5000     46.7000      8.7956    -93.4667     10.0135     12.0765     18.4658     87.3555      2.3856     -0.0049      3.4000     23.7467
  9553.0000     46.5667      8.7933    -92.5333      9.7706     14.3907     21.6819     87.4000      2.3667      0.0002      3.4933     23.8400
  9553.5000     47.6667      8.7933    -92.4667      9.6414     16.4828     24.3424     87.7556      2.3720      0.0021      3.4667     23.7600
  9554.0000     51.1000      8.7933    -92.4667      9.5043     14.8825     23.3434     85.9111      2.3953      0.0030      3.4711     22.7867
  9554.5000     47.6000      8.7933    -92.1333      9.4364     12.6579     20.8801     85.2444      2.4160      0.0001      3.2711     22.0667
  9555.0000     44.7333      8.7933    -92.5333      9.2737     13.0262     19.0185     84.8667      2.4260     -0.0039      3.2533     21.7867
  9555.5000     41.6000      8.7933    -93.2667      9.1325     14.1807     26.6091     84.1333      2.4193     -0.0089      3.2267     22.4800
  9556.0000     45.1667      8.7978    -92.7333      9.0672     13.0947     25.9387     85.1555      2.4169     -0.0101      3.2533     22.2400
  9556.5000     51.7000      8.8000    -91.8222      9.0394     11.5105     22.0911     85.8444      2.4113     -0.0068      3.1467     23.0000
  9557.0000     49.6000      8.8000    -91.6445      8.9109     10.9908     17.2596     86.9111      2.3996     -0.0039      3.0533     24.5467
  9557.5000     48.6667      8.8178    -92.6889      8.8201     11.8813     17.6889     86.9556      2.3827     -0.0037      3.1111     25.9600
  9558.0000     45.7000      8.8200    -92.9778      8.7125     13.6677     20.9899     86.7333      2.3849     -0.0012      3.2267     25.1467
  9558.5000     46.4000      8.8200    -93.2000      8.7214     13.4322     22.8927     85.6000      2.3922      0.0007      3.3467     24.3600
  9559.0000     44.6000      8.8200    -92.6000      8.7482     12.3140     22.4289     85.8667      2.4060      0.0060      3.2800     24.1200
  9559.5000     43.6667      8.8200    -93.3333      8.9018     11.9774     20.1239     85.4889      2.3927      0.0003      3.3689     25.6267
  9560.0000     46.8000      8.8200    -93.4889      9.0580     12.7627     20.5489     85.5333      2.3880      0.0033      3.3644     25.8400
  9560.5000     50.1333      8.8244    -94.2667      9.3596     13.3361     22.7534     84.9111      2.3811     -0.0033      3.2889     26.6400
  9561.0000     50.1333      8.8222    -93.3556      9.6119     13.1599     22.8459     81.1778      2.4060      0.0000      3.2622     26.0933
  9561.5000     46.1333      8.8067    -91.2667      9.7406     13.9807     22.5671     77.5333      2.4631      0.0010      3.4133     23.4933
  9562.0000     43.6000      8.8244    -90.5333      9.8307     16.8798     23.3979     74.0222      2.5287      0.0080      3.3200     19.8667
  9562.5000     44.7667      8.8311    -91.3111      9.9318     19.7657     38.2644     72.5111      2.5489      0.0100      3.1156     17.2800
  9563.0000     48.7000      8.7178    -92.1778      9.8710     19.7962     69.9890     76.2000      2.5007      0.0063      2.9600     17.0933
  9563.5000     47.7667      8.6889    -92.5556      9.9624     15.8115     31.3981     80.6889      2.4451      0.0077      3.0178     20.2800
