~Version Information
 VERS.                2.00:   CWLS log ASCII Standard -VERSION 2.00
 WRAP.                  NO:   One line per frame
~Well Information Block
#MNEM.UNIT              Data                Description
#--------- -------------------------------  -------------------------------
 STRT.F                         7800.0000:   Starting Depth
 STOP.F                        11520.0000:   Ending Depth
 STEP.F                            0.5000:   Level Spacing
 NULL.                          -999.2500:   Absent Value
 COMP.     BOGMC/PIU                     :   Company
 WELL.     KAILASTILA-3                  :   Well
 FLD .     KAILASTILA                    :   Field
 LOC .                                   :   Location
 PROV.                                   :   Province
 SRVC.                                   :   Service Company
 LIC .                                   :   License Number
 DATE.                                   :   Log Date
 UWI .                                   :   Unique Well ID
~Curve Information Block
#MNEM.UNIT       API Codes    Curve Description
#---------    -------------   -------------------------------
 DEPT.F        0   0  0  0:   Primary Index
 GR  .GAPI     0   0  0  0:   Gamma Ray
 CALI.IN       0   0  0  0:   Caliper
 SP  .MV       0   0  0  0:   Spontaneous Potential
 ILD .OHMM     0   0  0  0:   Deep Induction Standard Processed Resistivity
 SFLU.OHMM     0   0  0  0:   SFL Resistivity (Unaveraged)
 MSFL.OHMM     0   0  0  0:   Msfl Resistivity
 DT  .US/F     0   0  0  0:   Delta-T
 RHOB.G/C3     0   0  0  0:   Bulk Density
 DRHO.G/C3     0   0  0  0:   Delta Rho
 PEF .         0   0  0  0:   Photo-Electric Factor
 NPHI.PU       0   0  0  0:   Neutron Porosity
~Parameter Information Block
#MNEM.UNIT              Value             Description
#---------    -------------------------   -------------------------------
 BLI .          11565.000             :   Bottom Log Interval
 BS1 .             17.000             :   Bit Size 1
 BS2 .             12.250             :   Bit Size 2
 BS3 .               .000             :   Bit Size 3
 BSD1.           5102.000             :   Bit Size Depth 1
 BSD2.          11568.000             :   Bit Size Depth 2
 BSD3.               .000             :   Bit Size Depth 3
 CBD1.            632.000             :   Casing Bottom (Driller) 1
 CBD2.           5100.000             :   Casing Bottom (Driller) 2
 CBD3.               .000             :   Casing Bottom (Driller) 3
 CBL1.            634.000             :   Casing Bottom (Logger) 1
 CBL2.           5108.000             :   Casing Bottom (Logger) 2
 CBL3.               .000             :   Casing Bottom (Logger) 3
 CS1 .             13.375             :   Casing Size 1
 CS2 .              9.625             :   Casing Size 2
 CS3 .               .000             :   Casing Size 3
 CW1 .               .000             :   Casing Weight 1
 CW2 .               .000             :   Casing Weight 2
 CW3 .               .000             :   Casing Weight 3
 DAY .        28                      :   Date - Day
 DFD .              9.650             :   Drilling Fluid Density
 DFL .              5.200             :   Drilling Fluid Loss
 DFPH.              9.000             :   Drilling Fluid Ph
 DFT .        GEL-BENEX               :   Drilling Fluid Type
 DFV .             48.000             :   Drilling Fluid Viscosity
 DMF .        DF                      :   Drilling Measured From
 EDF .             72.000             :   Elevation Of Derrick Floor
 EGL .               .000             :   Elevation Of Ground Level
 EKB .             73.000             :   Elevation Of Kelly Bushing
 ENGI.        LEBIOKI#                :   Engineer'S Name
 EPD .               .000             :   Elevation Of Perm. Datum
 LATI.        864,663 Y N             :   Latitude
 LCC .        440                     :   Logging Company Code
 LMF .        DF                      :   Log Measured From
 LONG.        3,223,823 Y E           :   Longitude
 LUL .        PBG                     :   Logging Unit Location
 LUN .        737                     :   Logging Unit Number
 MCSS.        EMT                     :   Mud Cake Sample Source
 MCST.             70.000             :   Mud Cake Sample Temperature
 MFSS.        EMT                     :   Mud Filtrate Sample Source
 MFST.             70.000             :   Mud Filtrate Sample Temperature
 MONT.        12                      :   Date - Month
 MRT .            154.000             :   Maximum Recorded Temperature
 MSS .        FLOWLINE                :   Mud Sample Source
 MST .             68.000             :   Mud Sample Temperature
 NATI.        BANGLADESH              :   Nation
 PDAT.        MSL                     :   Permanent Datum
 R1  .        SELECTED CURVES OVER SELECTED INTERVALS AS PER PETROBANGLA:   Remark Line 1
 R2  .        SPECIFICATIONS DETAILED IN TABLE 6.:   Remark Line 2
 R3  .        DATA TAKEN FROM TAPE 183. THIS TAPE IS A SCHLUMBERGER:   Remark Line 3
 R4  .        EDIT TAPE.              :   Remark Line 4
 R5  .        MSFL TAPE DATA OFFSET FROM H/C LOG, HOWEVER ALL DIGITAL:   Remark Line 5
 R6  .        SOURCES FOUND TO BE IDENTICAL ON SLB EDIT TAPES, CURVE:   Remark Line 6
 R7  .        OUTPUT AS PER EDIT TAPES.:   Remark Line 7
 RMCS.              2.140             :   Resistivity Of Mud Cake Sample
 RMFS.              5.350             :   Resistivity Of Mud Filtrate Sample
 RMS .              3.480             :   Resistivity Of Mud Sample
 RUN .        2                       :   Run Number
 STAT.        BANGLADESH              :   State Or Province
 TCS .        14:00/28                :   Time Circulation Stopped
 TDD .          11568.000             :   Total Depth - Driller
 TDL .          11572.000             :   Total Depth - Logger
 TLAB.        23:29/28                :   Time Logger At Bottom
 TLI .           5108.000             :   Top Log Interval
 TOOL.        COMPOSITE               :   Epl Of All Possible Sensors
 WITN.        ELAHI                   :   Witness' Name
 YEAR.        88                      :   Date - Year
#  Curve Data
~A   DEPT        GR          CALI        SP          ILD         SFLU        MSFL        DT          RHOB        DRHO        PEF         NPHI
# ...
  8780.0000     33.8000      8.7800   -101.6667     22.6828     27.4389     37.9149     88.4889      2.3087     -0.0088      2.6089     23.9600
  8780.5000     33.9667      8.7844   -101.6889     22.1325     28.0347     38.6987     88.4667      2.2989     -0.0130      2.7333     23.8533
  8781.0000     34.7667      8.7978   -103.0000     22.2688     27.7494     37.4136     88.2000      2.2931     -0.0127      2.6756     25.0267
  8781.5000     36.6000      8.7956   -101.6889     22.0646     26.9381     37.9149     88.6444      2.2931     -0.0044      2.6444     25.0933
  8782.0000     34.2000      8.7933   -100.8000     22.7061     26.4193     37.8373     88.7111      2.2980     -0.0026      2.5689     24.9067
  8782.5000     31.7000      8.7933   -100.7778     22.7060     26.0700     35.6941     88.8667      2.2944     -0.0094      2.5200     24.7067
  8783.0000     32.1000      8.7889   -100.8000     22.3831     26.0433     35.5838     88.5111      2.2931     -0.0183      2.6133     25.2800
  8783.5000     32.0333      8.7644   -100.6889     22.2688     26.5278     37.2237     87.9333      2.2991     -0.0154      2.8044     24.5867
  8784.0000     33.6333      8.6933   -100.2222     22.5209     27.2151     38.2657     87.3778      2.3151     -0.0093      3.0267     24.4933
  8784.5000     34.6000      8.6556    -99.7111     22.7293     27.8918     38.8576     86.8667      2.3256     -0.0063      2.9422     25.3467
  8785.0000     41.5000      8.6489    -99.1333     22.7992     28.3232     39.8238     86.0667      2.3320     -0.0079      2.8489     25.8400
  8785.5000     44.8000      8.6467    -98.8889     22.9631     28.9091     40.3570     85.8222      2.3409     -0.0074      2.7867     25.8933
  8786.0000     43.6333      8.6467    -98.3778     22.8225     29.6581     40.4811     85.6889      2.3487     -0.0061      2.9600     24.6400
  8786.5000     40.1000      8.6222    -98.2222     22.8693     29.6580     40.9813     85.4444      2.3716     -0.0047      3.2800     24.2667
  8787.0000     36.5000      8.6200    -98.0222     23.0337     28.1512     40.8558     84.9111      2.3864     -0.0096      3.3422     24.1200
  8787.5000     37.0667      8.6133    -97.6445     22.9866     26.1244     37.8450     84.6222      2.4031     -0.0098      3.3422     23.4667
  8788.0000     38.9667      8.6178    -97.4889     22.7060     25.3338     30.1784     84.1111      2.4136     -0.0053      3.1200     23.1333
  8788.5000     41.3000      8.6200    -97.3556     22.4289     25.2043     38.2264     83.7778      2.4224      0.0030      3.2400     23.2133
  8789.0000     41.7333      8.6244    -97.3556     22.1325     24.9732     35.2599     83.1333      2.4238      0.0019      3.2800     23.7067
  8789.5000     40.0333      8.6444    -98.8667     22.4979     24.7189     35.1858     83.0222      2.4111     -0.0010      3.1956     23.8667
  8790.0000     38.2667      8.6467    -97.7556     22.6133     25.3338     38.4618     84.4889      2.3889     -0.0030      3.0800     23.9867
  8790.5000     37.7667      8.6467    -97.8222     22.3145     26.3119     37.1466     85.8222      2.3573     -0.0079      2.8622     25.0000
  8791.0000     36.9667      8.6889    -98.6889     21.7285     27.8069     41.4028     86.2889      2.3329     -0.0086      2.7689     24.8000
  8791.5000     36.9000      8.6933    -99.5778     22.0196     28.5268     40.3572     86.5333      2.3209     -0.0087      2.7200     24.0000
  8792.0000     37.5000      8.6978    -99.9778     22.3144     28.4102     40.2335     86.5333      2.3191     -0.0004      2.7689     23.3867
  8792.5000     38.7000      8.7067   -100.2222     22.4748     27.6364     37.5690     87.0667      2.3116      0.0020      2.7867     22.9200
  8793.0000     38.7333      8.7067   -100.5333     22.2916     26.4737     35.6573     87.1333      2.3051      0.0011      2.7644     23.4667
  8793.5000     37.8667      8.7111   -100.1333     22.2233     26.2037     35.5110     87.0889      2.3053     -0.0017      2.7200     24.6933
  8794.0000     35.4333      8.7133   -100.3778     21.8847     26.2037     36.3574     86.9778      2.3027     -0.0029      2.7200     24.8133
  8794.5000     34.2667      8.7133   -100.6889     21.8623     26.4192     38.2264     86.2000      2.3073     -0.0032      2.6889     24.4533
  8795.0000     31.4667      8.7089   -100.8445     21.7508     26.9104     37.4903     86.2222      2.3049     -0.0058      2.8400     23.7067
  8795.5000     31.0667      8.7067   -101.0000     21.5955     26.9379     40.5225     86.9333      2.3049     -0.0072      2.7867     23.6933
  8796.0000     31.9000      8.7178   -101.0444     22.0873     26.9379     38.5416     86.3555      2.2953     -0.0071      2.8533     24.5600
  8796.5000     32.7000      8.7156   -101.5556     22.2005     27.0485     37.7598     84.7111      2.3020     -0.0031      2.7067     24.8000
  8797.0000     31.6333      8.6933   -101.6667     22.2005     28.3526     38.3834     83.0667      2.3044     -0.0031      2.6844     24.4267
  8797.5000     29.9667      8.6933   -101.6889     22.2688     28.8498     38.9771     82.8000      2.3087     -0.0070      2.5600     23.4267
  8798.0000     28.9667      8.6933   -103.0000     22.0195     29.0572     40.2340     83.3555      2.3027     -0.0088      2.6089     22.5600
  8798.5000     31.3333      8.6933   -101.8000     21.9970     27.4682     41.7859     85.1778      2.2987     -0.0113      2.6222     22.8800
  8799.0000     33.5667      8.6933   -100.9778     21.9970     25.8581     38.1125     86.9556      2.3000     -0.0060      2.7733     23.5467
  8799.5000     35.5000      8.6933   -101.0444     22.0646     25.3336     37.3372     87.6667      2.2987     -0.0021      2.7244     25.6000
  8800.0000     35.3000      8.7133   -101.6000     22.0646     25.9637     36.5059     87.4889      2.3022      0.0023      2.7111     24.3200
  8800.5000     35.7000      8.7133   -101.3556     22.3144     26.9108     37.5290     87.5111      2.3049      0.0011      2.6178     24.5600
  8801.0000     39.6333      8.7133   -101.1556     22.2916     27.6361     38.3439     87.4889      2.3156      0.0000      2.6222     23.0000
  8801.5000     40.0667      8.7133   -101.1333     22.2005     27.9202     38.1092     86.9778      2.3256     -0.0002      2.7867     23.9600
  8802.0000     40.9333      8.7178   -100.7556     22.3373     28.1786     38.1873     86.8222      2.3313     -0.0020      2.7511     23.7467
  8802.5000     35.5333      8.7200   -100.7333     22.1325     28.2942     39.2578     86.7111      2.3182     -0.0058      2.7289     24.4400
  8803.0000     34.0667      8.7156   -100.3333     22.1778     27.6644     40.8975     86.1333      2.3064     -0.0058      2.5733     23.2667
  8803.5000     31.7000      8.6933   -100.8667     22.2005     27.2429     39.9056     86.5333      2.3013     -0.0039      2.6622     22.8667
  8804.0000     32.3000      8.6978   -101.0000     22.2005     27.1871     39.0568     86.3111      2.3073     -0.0033      2.6533     22.7333
  8804.5000     33.5333      8.7733   -101.0444     22.4059     27.6361     39.7829     85.8667      2.3102     -0.0050      2.6533     22.8533
  8805.0000     35.4333      8.7756   -101.0667     22.2916     28.1499     39.1769     86.8444      2.3178     -0.0027      2.6622     24.5600
  8805.5000     38.7667      8.7422   -101.0667     21.9072     28.2363     40.0283     86.9778      2.3258      0.0023      2.7644     24.8933
  8806.0000     41.0000      8.7511   -101.2000     21.7953     27.4672     41.1494     87.2222      2.3307      0.0103      2.7644     25.1200
  8806.5000     41.3667      8.7889   -102.6000     21.7953     26.4465     38.4251     87.9333      2.3200      0.0103      2.6756     24.7200
  8807.0000     41.6000      8.7978   -101.2889     21.7953     26.0168     35.7298     87.0222      2.3080      0.0042      2.6133     25.0000
  8807.5000     40.9000      8.8000   -100.4000     21.7285     25.6205     36.7308     86.9778      2.3011     -0.0047      2.6622     25.4400
