~Version Information
 VERS.                2.00:   CWLS log ASCII Standard -VERSION 2.00
 WRAP.                  NO:   One line per frame
~Well Information Block
#MNEM.UNIT              Data                Description
#--------- -------------------------------  -------------------------------
 STRT.F                         7800.0000:   Starting Depth
 STOP.F                        11520.0000:   Ending Depth
 STEP.F                            0.5000:   Level Spacing
 NULL.                          -999.2500:   Absent Value
 COMP.     BOGMC/PIU                     :   Company
 WELL.     KAILASTILA-3                  :   Well
 FLD .     KAILASTILA                    :   Field
 LOC .                                   :   Location
 PROV.                                   :   Province
 SRVC.                                   :   Service Company
 LIC .                                   :   License Number
 DATE.                                   :   Log Date
 UWI .                                   :   Unique Well ID
~Curve Information Block
#MNEM.UNIT       API Codes    Curve Description
#---------    -------------   -------------------------------
 DEPT.F        0   0  0  0:   Primary Index
 GR  .GAPI     0   0  0  0:   Gamma Ray
 CALI.IN       0   0  0  0:   Caliper
 SP  .MV       0   0  0  0:   Spontaneous Potential
 ILD .OHMM     0   0  0  0:   Deep Induction Standard Processed Resistivity
 SFLU.OHMM     0   0  0  0:   SFL Resistivity (Unaveraged)
 MSFL.OHMM     0   0  0  0:   Msfl Resistivity
 DT  .US/F     0   0  0  0:   Delta-T
 RHOB.G/C3     0   0  0  0:   Bulk Density
 DRHO.G/C3     0   0  0  0:   Delta Rho
 PEF .         0   0  0  0:   Photo-Electric Factor
 NPHI.PU       0   0  0  0:   Neutron Porosity
~Parameter Information Block
#MNEM.UNIT              Value             Description
#---------    -------------------------   -------------------------------
 BLI .          11565.000             :   Bottom Log Interval
 BS1 .             17.000             :   Bit Size 1
 BS2 .             12.250             :   Bit Size 2
 BS3 .               .000             :   Bit Size 3
 BSD1.           5102.000             :   Bit Size Depth 1
 BSD2.          11568.000             :   Bit Size Depth 2
 BSD3.               .000             :   Bit Size Depth 3
 CBD1.            632.000             :   Casing Bottom (Driller) 1
 CBD2.           5100.000             :   Casing Bottom (Driller) 2
 CBD3.               .000             :   Casing Bottom (Driller) 3
 CBL1.            634.000             :   Casing Bottom (Logger) 1
 CBL2.           5108.000             :   Casing Bottom (Logger) 2
 CBL3.               .000             :   Casing Bottom (Logger) 3
 CS1 .             13.375             :   Casing Size 1
 CS2 .              9.625             :   Casing Size 2
 CS3 .               .000             :   Casing Size 3
 CW1 .               .000             :   Casing Weight 1
 CW2 .               .000             :   Casing Weight 2
 CW3 .               .000             :   Casing Weight 3
 DAY .        28                      :   Date - Day
 DFD .              9.650             :   Drilling Fluid Density
 DFL .              5.200             :   Drilling Fluid Loss
 DFPH.              9.000             :   Drilling Fluid Ph
 DFT .        GEL-BENEX               :   Drilling Fluid Type
 DFV .             48.000             :   Drilling Fluid Viscosity
 DMF .        DF                      :   Drilling Measured From
 EDF .             72.000             :   Elevation Of Derrick Floor
 EGL .               .000             :   Elevation Of Ground Level
 EKB .             73.000             :   Elevation Of Kelly Bushing
 ENGI.        LEBIOKI#                :   Engineer'S Name
 EPD .               .000             :   Elevation Of Perm. Datum
 LATI.        864,663 Y N             :   Latitude
 LCC .        440                     :   Logging Company Code
 LMF .        DF                      :   Log Measured From
 LONG.        3,223,823 Y E           :   Longitude
 LUL .        PBG                     :   Logging Unit Location
 LUN .        737                     :   Logging Unit Number
 MCSS.        EMT                     :   Mud Cake Sample Source
 MCST.             70.000             :   Mud Cake Sample Temperature
 MFSS.        EMT                     :   Mud Filtrate Sample Source
 MFST.             70.000             :   Mud Filtrate Sample Temperature
 MONT.        12                      :   Date - Month
 MRT .            154.000             :   Maximum Recorded Temperature
 MSS .        FLOWLINE                :   Mud Sample Source
 MST .             68.000             :   Mud Sample Temperature
 NATI.        BANGLADESH              :   Nation
 PDAT.        MSL                     :   Permanent Datum
 R1  .        SELECTED CURVES OVER SELECTED INTERVALS AS PER PETROBANGLA:   Remark Line 1
 R2  .        SPECIFICATIONS DETAILED IN TABLE 6.:   Remark Line 2
 R3  .        DATA TAKEN FROM TAPE 183. THIS TAPE IS A SCHLUMBERGER:   Remark Line 3
 R4  .        EDIT TAPE.              :   Remark Line 4
 R5  .        MSFL TAPE DATA OFFSET FROM H/C LOG, HOWEVER ALL DIGITAL:   Remark Line 5
 R6  .        SOURCES FOUND TO BE IDENTICAL ON SLB EDIT TAPES, CURVE:   Remark Line 6
 R7  .        OUTPUT AS PER EDIT TAPES.:   Remark Line 7
 RMCS.              2.140             :   Resistivity Of Mud Cake Sample
 RMFS.              5.350             :   Resistivity Of Mud Filtrate Sample
 RMS .              3.480             :   Resistivity Of Mud Sample
 RUN .        2                       :   Run Number
 STAT.        BANGLADESH              :   State Or Province
 TCS .        14:00/28                :   Time Circulation Stopped
 TDD .          11568.000             :   Total Depth - Driller
 TDL .          11572.000             :   Total Depth - Logger
 TLAB.        23:29/28                :   Time Logger At Bottom
 TLI .           5108.000             :   Top Log Interval
 TOOL.        COMPOSITE               :   Epl Of All Possible Sensors
 WITN.        ELAHI                   :   Witness' Name
 YEAR.        88                      :   Date - Year
#  Curve Data
~A   DEPT        GR          CALI        SP          ILD         SFLU        MSFL        DT          RHOB        DRHO        PEF         NPHI
# ...
 10012.0000     54.5000      9.6133    -70.6889      8.5360     11.2096     23.0038     77.2000      2.5240      0.1343      3.5778     21.6400
 10012.5000     56.3333      9.3467    -69.4444      8.5973     10.4965     14.0076     78.4000      2.5138      0.0819      3.5067     22.4533
 10013.0000     57.6000      9.4156    -67.0667      8.5973     10.0650     15.1716     77.8444      2.4684      0.0201      3.3689     23.2267
 10013.5000     54.4000      9.3956    -65.2444      8.6414      9.6220     12.4576     74.3333      2.4638      0.0128      3.3822     23.2667
 10014.0000     50.2667      9.1867    -64.2889      8.7572      9.2547     11.4859     74.5333      2.4584      0.0133      3.4400     23.9867
 10014.5000     48.7333      9.1867    -64.0000      8.6769      9.4848     10.8350     74.4444      2.4793      0.0233      3.2267     26.0800
 10015.0000     47.3667      9.0267    -64.3333      8.6591      9.4268     10.2101     75.5778      2.4753      0.0157      3.2356     26.6133
 10015.5000     45.6000      9.2556    -64.9778      8.5535      9.4751     10.9239     77.6667      2.4873      0.0176      3.0400     26.4800
 10016.0000     44.3667      9.5733    -65.9333      8.5272      9.6317     11.0926     78.4000      2.4673      0.0072      3.3111     24.4267
 10016.5000     47.6667      9.3800    -67.4222      8.3802      9.8207     11.9554     78.8222      2.4733      0.0067      3.3422     24.0133
 10017.0000     49.1000      9.5200    -69.7778      8.2948      9.1330     15.1716     77.1555      2.4580      0.0059      3.5289     22.9467
 10017.5000     47.7000      9.5356    -74.6000      8.0689      8.7036     13.7275     74.8000      2.4687      0.0134      3.6178     22.6000
 10018.0000     42.6333      9.0911    -81.0222      7.7612      9.1799     11.2987     75.1778      2.4793      0.0287      3.6400     23.1333
 10018.5000     39.1000      8.9244    -87.3333      7.3366     10.3284     14.3484     75.5556      2.4553      0.0217      3.2044     23.8133
 10019.0000     34.7667      8.8422    -95.6000      6.8226     12.6921     21.7285     79.6667      2.3980      0.0086      2.9467     24.4000
 10019.5000     31.9000      8.5711   -103.1111      6.2864     16.1556     22.0261     83.0667      2.3418     -0.0030      2.7378     23.4400
 10020.0000     34.3000      8.5111   -112.2889      5.8338     18.9923     35.2919     83.4222      2.3162     -0.0054      2.6933     22.4400
 10020.5000     31.4667      8.4800   -116.4444      5.5087     20.2471     40.7721     84.4444      2.2987     -0.0093      2.6844     23.4000
 10021.0000     27.7000      8.5067   -119.7556      5.2392     19.9196     39.7833     85.0667      2.3013     -0.0113      2.6267     22.9467
 10021.5000     28.9000      8.4867   -121.4444      5.0290     18.9444     39.2974     86.0000      2.2913     -0.0153      2.7200     24.3600
 10022.0000     26.9000      8.5044   -122.4444      4.8719     18.6556     39.3779     85.6889      2.3002     -0.0152      2.6133     24.4800
 10022.5000     26.2333      8.5067   -122.8445      4.7928     18.3526     39.7829     85.5333      2.3104     -0.0099      2.6578     24.1200
 10023.0000     24.0000      8.5111   -122.8222      4.7198     18.8091     39.2573     83.7111      2.3333     -0.0067      2.7822     22.4667
 10023.5000     27.1667      8.5133   -121.7333      4.6957     19.5551     39.4596     83.1555      2.3618     -0.0033      3.0178     20.0533
 10024.0000     28.2333      8.5089   -120.6222      4.7488     20.0431     44.8432     81.8000      2.3816     -0.0069      3.0311     19.5600
 10024.5000     28.9667      8.5067   -120.1333      4.7537     18.8347     42.7818     80.9333      2.3913     -0.0101      2.9822     20.5733
 10025.0000     29.1000      8.5111   -119.6222      4.7928     16.4004     54.2455     81.3333      2.3851     -0.0108      2.8133     22.4800
 10025.5000     31.9667      8.5133   -119.8222      4.7977     15.6446     47.8915     81.2667      2.3649     -0.0137      2.8311     23.6400
 10026.0000     34.7333      8.5089   -122.4000      4.8223     16.1493     40.4894     83.2444      2.3471     -0.0107      2.6933     23.7467
 10026.5000     36.0000      8.5067   -121.8000      4.8272     17.2073     38.9371     83.4444      2.3327     -0.0083      2.6711     23.9333
 10027.0000     35.6667      8.5067   -121.6667      4.8272     17.8526     39.4182     83.6667      2.3282     -0.0043      2.6000     24.2800
 10027.5000     34.0000      8.5000   -121.9556      4.8272     18.2590     39.1769     83.6667      2.3284     -0.0048      2.6578     24.0933
 10028.0000     32.3667      8.5044   -122.7333      4.8272     18.6365     39.7017     83.6889      2.3364     -0.0020      2.6933     23.0800
 10028.5000     30.8000      8.5067   -122.2667      4.8421     18.4090     39.9870     82.9333      2.3373     -0.0011      2.6578     22.9733
 10029.0000     31.4667      8.5022   -122.5111      4.8421     18.6365     40.1923     82.8667      2.3373     -0.0012      2.6311     22.5600
 10029.5000     33.7000      8.5000   -122.6445      4.8322     18.5603     41.1494     82.8222      2.3409     -0.0033      2.5556     22.6400
 10030.0000     37.4333      8.5067   -122.7778      4.7977     19.1000     40.6888     82.7333      2.3422     -0.0077      2.5467     22.6267
 10030.5000     38.5667      8.5067   -122.9778      4.7879     19.1586     40.6056     83.2222      2.3527     -0.0043      2.5467     23.1067
 10031.0000     35.3000      8.5111   -123.1778      4.7683     19.2963     41.5301     83.3111      2.3473     -0.0070      2.5156     24.4800
 10031.5000     32.1333      8.5133   -123.2444      4.7683     18.7321     41.1075     83.5778      2.3444     -0.0047      2.6133     24.2533
 10032.0000     29.6000      8.5133   -123.3778      4.7586     18.6938     39.9468     83.6000      2.3373     -0.0080      2.5956     24.1600
 10032.5000     31.9000      8.5133   -123.4444      4.7440     18.9831     38.3439     83.3111      2.3396     -0.0059      2.7733     22.9200
 10033.0000     31.0667      8.5089   -123.8445      4.7149     19.5949     39.2172     83.0889      2.3467     -0.0034      2.6978     23.3200
 10033.5000     33.3000      8.5067   -123.8000      4.7005     19.6350     39.7423     83.0222      2.3431      0.0023      2.6978     23.2933
 10034.0000     33.7000      8.5111   -124.3778      4.6717     19.8166     40.1923     83.0000      2.3404      0.0012      2.5689     23.9200
 10034.5000     36.1667      8.5089   -125.2000      4.6526     19.5948     41.1917     82.6889      2.3347     -0.0017      2.5822     23.3733
 10035.0000     36.8000      8.5067   -123.6222      4.6526     19.1000     41.9144     82.7333      2.3462      0.0010      2.6800     23.0800
 10035.5000     35.2667      8.5022   -123.4667      4.6383     18.9055     41.2339     82.6667      2.3500      0.0001      2.8400     22.7467
 10036.0000     31.9000      8.5000   -123.5556      4.6383     18.4090     40.6057     82.9778      2.3429     -0.0014      2.8533     22.5200
 10036.5000     31.2000      8.5044   -124.0889      4.6289     18.6556     40.4397     83.0444      2.3318     -0.0063      2.7733     23.0400
 10037.0000     32.8000      8.5067   -124.0222      4.6241     18.6938     40.1922     83.1333      2.3227     -0.0033      2.6133     23.0800
 10037.5000     34.8333      8.5067   -123.8889      4.6241     19.0609     40.1510     83.1333      2.3276     -0.0017      2.5733     22.7067
 10038.0000     35.2667      8.5067   -123.6222      4.6241     19.1783     40.8140     83.1778      2.3329     -0.0056      2.5733     21.5467
 10038.5000     35.6000      8.5111   -123.6667      4.6241     19.6350     41.1073     83.6222      2.3347     -0.0070      2.6622     21.4400
 10039.0000     34.5333      8.5133   -123.6000      4.6336     19.3162     41.7432     83.8444      2.3324     -0.0060      2.6667     21.6800
 10039.5000     33.2667      8.5133   -124.0000      4.6383     19.0219     41.7005     84.2667      2.3222     -0.0070      2.6800     21.5333
