~Version Information
 VERS.                2.00:   CWLS log ASCII Standard -VERSION 2.00
 WRAP.                  NO:   One line per frame
~Well Information Block
#MNEM.UNIT              Data                Description
#--------- -------------------------------  -------------------------------
 STRT.F                         7800.0000:   Starting Depth
 STOP.F                        11520.0000:   Ending Depth
 STEP.F                            0.5000:   Level Spacing
 NULL.                          -999.2500:   Absent Value
 COMP.     BOGMC/PIU                     :   Company
 WELL.     KAILASTILA-3                  :   Well
 FLD .     KAILASTILA                    :   Field
 LOC .                                   :   Location
 PROV.                                   :   Province
 SRVC.                                   :   Service Company
 LIC .                                   :   License Number
 DATE.                                   :   Log Date
 UWI .                                   :   Unique Well ID
~Curve Information Block
#MNEM.UNIT       API Codes    Curve Description
#---------    -------------   -------------------------------
 DEPT.F        0   0  0  0:   Primary Index
 GR  .GAPI     0   0  0  0:   Gamma Ray
 CALI.IN       0   0  0  0:   Caliper
 SP  .MV       0   0  0  0:   Spontaneous Potential
 ILD .OHMM     0   0  0  0:   Deep Induction Standard Processed Resistivity
 SFLU.OHMM     0   0  0  0:   SFL Resistivity (Unaveraged)
 MSFL.OHMM     0   0  0  0:   Msfl Resistivity
 DT  .US/F     0   0  0  0:   Delta-T
 RHOB.G/C3     0   0  0  0:   Bulk Density
 DRHO.G/C3     0   0  0  0:   Delta Rho
 PEF .         0   0  0  0:   Photo-Electric Factor
 NPHI.PU       0   0  0  0:   Neutron Porosity
~Parameter Information Block
#MNEM.UNIT              Value             Description
#---------    -------------------------   -------------------------------
 BLI .          11565.000             :   Bottom Log Interval
 BS1 .             17.000             :   Bit Size 1
 BS2 .             12.250             :   Bit Size 2
 BS3 .               .000             :   Bit Size 3
 BSD1.           5102.000             :   Bit Size Depth 1
 BSD2.          11568.000             :   Bit Size Depth 2
 BSD3.               .000             :   Bit Size Depth 3
 CBD1.            632.000             :   Casing Bottom (Driller) 1
 CBD2.           5100.000             :   Casing Bottom (Driller) 2
 CBD3.               .000             :   Casing Bottom (Driller) 3
 CBL1.            634.000             :   Casing Bottom (Logger) 1
 CBL2.           5108.000             :   Casing Bottom (Logger) 2
 CBL3.               .000             :   Casing Bottom (Logger) 3
 CS1 .             13.375             :   Casing Size 1
 CS2 .              9.625             :   Casing Size 2
 CS3 .               .000             :   Casing Size 3
 CW1 .               .000             :   Casing Weight 1
 CW2 .               .000             :   Casing Weight 2
 CW3 .               .000             :   Casing Weight 3
 DAY .        28                      :   Date - Day
 DFD .              9.650             :   Drilling Fluid Density
 DFL .              5.200             :   Drilling Fluid Loss
 DFPH.              9.000             :   Drilling Fluid Ph
 DFT .        GEL-BENEX               :   Drilling Fluid Type
 DFV .             48.000             :   Drilling Fluid Viscosity
 DMF .        DF                      :   Drilling Measured From
 EDF .             72.000             :   Elevation Of Derrick Floor
 EGL .               .000             :   Elevation Of Ground Level
 EKB .             73.000             :   Elevation Of Kelly Bushing
 ENGI.        LEBIOKI#                :   Engineer'S Name
 EPD .               .000             :   Elevation Of Perm. Datum
 LATI.        864,663 Y N             :   Latitude
 LCC .        440                     :   Logging Company Code
 LMF .        DF                      :   Log Measured From
 LONG.        3,223,823 Y E           :   Longitude
 LUL .        PBG                     :   Logging Unit Location
 LUN .        737                     :   Logging Unit Number
 MCSS.        EMT                     :   Mud Cake Sample Source
 MCST.             70.000             :   Mud Cake Sample Temperature
 MFSS.        EMT                     :   Mud Filtrate Sample Source
 MFST.             70.000             :   Mud Filtrate Sample Temperature
 MONT.        12                      :   Date - Month
 MRT .            154.000             :   Maximum Recorded Temperature
 MSS .        FLOWLINE                :   Mud Sample Source
 MST .             68.000             :   Mud Sample Temperature
 NATI.        BANGLADESH              :   Nation
 PDAT.        MSL                     :   Permanent Datum
 R1  .        SELECTED CURVES OVER SELECTED INTERVALS AS PER PETROBANGLA:   Remark Line 1
 R2  .        SPECIFICATIONS DETAILED IN TABLE 6.:   Remark Line 2
 R3  .        DATA TAKEN FROM TAPE 183. THIS TAPE IS A SCHLUMBERGER:   Remark Line 3
 R4  .        EDIT TAPE.              :   Remark Line 4
 R5  .        MSFL TAPE DATA OFFSET FROM H/C LOG, HOWEVER ALL DIGITAL:   Remark Line 5
 R6  .        SOURCES FOUND TO BE IDENTICAL ON SLB EDIT TAPES, CURVE:   Remark Line 6
 R7  .        OUTPUT AS PER EDIT TAPES.:   Remark Line 7
 RMCS.              2.140             :   Resistivity Of Mud Cake Sample
 RMFS.              5.350             :   Resistivity Of Mud Filtrate Sample
 RMS .              3.480             :   Resistivity Of Mud Sample
 RUN .        2                       :   Run Number
 STAT.        BANGLADESH              :   State Or Province
 TCS .        14:00/28                :   Time Circulation Stopped
 TDD .          11568.000             :   Total Depth - Driller
 TDL .          11572.000             :   Total Depth - Logger
 TLAB.        23:29/28                :   Time Logger At Bottom
 TLI .           5108.000             :   Top Log Interval
 TOOL.        COMPOSITE               :   Epl Of All Possible Sensors
 WITN.        ELAHI                   :   Witness' Name
 YEAR.        88                      :   Date - Year
#  Curve Data
~A   DEPT        GR          CALI        SP          ILD         SFLU        MSFL        DT          RHOB        DRHO        PEF         NPHI
# ...
  9032.0000     29.4667      8.7200   -100.0667     21.0285     27.4387     39.2170     86.6667      2.2900     -0.0141      2.5067     23.6000
  9032.5000     28.7667      8.7467    -99.6000     20.8998     27.3267     38.5408     87.0000      2.3064     -0.0063      2.4711     23.9067
  9033.0000     28.1000      8.7222    -99.7333     20.4973     26.4737     37.9537     86.5778      2.3098     -0.0039      2.4667     22.1600
  9033.5000     26.9000      8.7200    -99.7778     20.6658     25.6993     36.9573     86.5778      2.3133     -0.0033      2.4578     22.5067
  9034.0000     27.9667      8.7200   -100.0000     20.8570     25.6466     36.4313     86.6667      2.3084     -0.0060      2.4533     23.2267
  9034.5000     29.0667      8.7200   -100.0889     21.0716     26.2846     36.4686     86.3333      2.3076     -0.0077      2.4667     24.0800
  9035.0000     30.2667      8.7467   -100.5778     20.9212     27.3271     37.8378     86.5333      2.3053     -0.0140      2.4533     24.4800
  9035.5000     31.4000      8.6933   -100.5778     20.3094     27.8918     38.9371     86.4667      2.3118     -0.0098      2.5022     24.2533
  9036.0000     31.4333      8.6867   -101.3778     20.5393     28.3521     38.5801     86.6444      2.3211     -0.0067      2.5422     23.3600
  9036.5000     31.2333      8.6911   -101.8222     20.7931     28.3811     39.5398     87.0000      2.3247     -0.0023      2.5956     23.1867
  9037.0000     30.9000      8.7133   -100.2667     20.9212     28.6438     41.2759     87.7333      2.3140     -0.0073      2.5911     22.9067
  9037.5000     31.8333      8.7133   -100.5778     21.0285     27.7500     39.2988     88.0444      2.3029     -0.0153      2.5511     23.9600
  9038.0000     37.2000      8.7133   -100.5333     20.5394     26.3389     37.9545     88.3333      2.2973     -0.0173      2.4400     23.8400
  9038.5000     36.7667      8.7133   -101.0000     19.8423     25.8310     35.7298     88.0000      2.3027     -0.0142      2.5111     24.1333
  9039.0000     35.5667      8.7133   -100.4444     19.8383     25.8575     36.6185     88.0889      2.3111     -0.0067      2.5644     24.1600
  9039.5000     30.6000      8.7133   -100.4667     19.7969     26.6093     37.9928     87.5333      2.3124     -0.0050      2.7067     24.0267
  9040.0000     31.8667      8.7000   -100.1556     20.3564     26.7456     38.6198     87.9556      2.3173     -0.0071      2.6356     23.4400
  9040.5000     35.1667      8.6956   -100.0889     20.5814     26.7183     40.3983     88.3555      2.3127     -0.0071      2.5911     23.7067
  9041.0000     37.4000      8.6933    -99.9556     20.4345     26.6364     38.7790     88.4000      2.3193     -0.0024      2.5733     24.4933
  9041.5000     35.9000      8.7178    -99.8667     20.4973     26.3922     37.2233     88.0667      2.3180     -0.0024      2.6222     25.6000
  9042.0000     34.0667      8.7267    -99.9111     20.3094     25.9371     37.0706     87.4667      2.3198     -0.0057      2.6844     25.4267
  9042.5000     33.7667      8.6956   -100.0000     20.5393     25.7255     37.3373     86.7333      2.3236     -0.0069      2.7200     25.0400
  9043.0000     35.1000      8.6933   -100.0000     20.6025     25.9370     38.4622     86.9111      2.3236     -0.0073      2.6311     25.0000
  9043.5000     34.0333      8.7178   -100.1778     20.5814     26.5278     38.5801     86.9778      2.3198     -0.0053      2.6400     26.1200
  9044.0000     30.5667      8.7156   -100.3556     20.2471     27.2151     38.3047     87.1111      2.3160     -0.0077      2.5556     26.8800
  9044.5000     28.0000      8.7089   -101.1778     20.4764     27.2150     39.4587     87.3778      2.3173     -0.0043      2.5022     26.5467
  9045.0000     27.7333      8.7067   -101.6445     20.4345     26.8828     39.3376     87.4000      2.3169     -0.0033      2.3333     24.3067
  9045.5000     27.3000      8.7022   -100.4222     20.6658     26.5275     38.8575     87.3778      2.3276      0.0059      2.4044     22.9467
  9046.0000     28.0333      8.6956    -99.6889     20.6870     26.9656     38.8973     86.3555      2.3378      0.0063      2.5156     21.8800
  9046.5000     28.1667      8.6933    -99.4889     20.8784     27.4669     40.1514     86.2667      2.3587      0.0078      2.7467     22.2000
  9047.0000     29.3667      8.6889    -99.8667     20.4764     27.9488     40.5225     85.8889      2.3569      0.0007      2.6933     21.5600
  9047.5000     30.1667      8.6867    -99.6667     20.3094     27.1874     40.5225     85.9111      2.3540      0.0037      2.7244     21.8800
  9048.0000     30.1333      8.6911    -99.2222     20.7082     26.6909     40.6471     86.3333      2.3378     -0.0010      2.5867     21.7733
  9048.5000     29.5000      8.6933    -98.9556     20.7931     26.9931     39.6613     85.8667      2.3262      0.0014      2.6533     22.9467
  9049.0000     30.0000      8.6889    -98.6445     20.9855     27.6361     39.1769     86.0667      2.3244      0.0018      2.6133     23.9200
  9049.5000     31.2667      8.6578    -98.1778     20.9640     27.9202     39.0968     85.4667      2.3338     -0.0012      2.7067     24.0533
  9050.0000     32.4667      8.6289    -97.9556     20.7082     28.0347     39.2172     85.7111      2.3500     -0.0050      2.6000     24.3733
  9050.5000     33.2000      8.6378    -97.8222     20.4137     27.6644     41.1494     85.7333      2.3531     -0.0062      2.4978     24.3200
  9051.0000     32.0333      8.6400    -97.6889     20.0821     27.2150     40.1514     85.7778      2.3538      0.0026      2.4933     23.2000
  9051.5000     30.8000      8.6644    -97.5556     20.1026     27.1316     38.9776     86.6889      2.3380      0.0046      2.6000     23.2933
  9052.0000     33.0333      8.6622    -97.3778     20.1644     26.3926     37.1092     87.3111      2.3460      0.0068      2.7733     22.7200
  9052.5000     35.1000      8.6467    -96.3556     20.3718     25.2056     37.1466     84.3333      2.3644      0.0083      2.6933     23.2133
  9053.0000     39.3000      8.6467    -96.3333     20.3718     23.1755     24.8192     85.0667      2.3840      0.0059      2.7333     23.7467
  9053.5000     37.5000      8.6578    -97.9333     20.4345     25.8084     13.3343     84.8000      2.3769     -0.0037      2.6933     25.2533
  9054.0000     39.7000      8.6644    -97.0667     20.3927     27.3833     32.0829     84.0222      2.3520     -0.0078      2.7333     25.7200
  9054.5000     37.8000      8.6867    -97.6000     20.4136     28.7318     41.4878     86.8000      2.3353     -0.0068      2.5733     25.3200
  9055.0000     38.3333      8.6867    -98.0667     20.9858     27.9491     38.8192     86.2000      2.3376      0.0037      2.6133     23.9333
  9055.5000     35.9667      8.6911    -98.8667     21.5073     27.6926     37.9924     86.1778      2.3427     -0.0007      2.5733     23.2800
  9056.0000     34.3667      8.6933    -98.4222     21.5293     28.2077     39.1773     86.4000      2.3418      0.0010      2.7289     23.6000
  9056.5000     33.3667      8.6933    -98.4667     21.6398     29.2366     39.7423     85.9778      2.3491     -0.0007      2.8622     23.5067
  9057.0000     35.9333      8.6933    -98.0444     21.5735     30.1787     39.9463     85.7111      2.3607      0.0020      3.1156     23.8000
  9057.5000     40.3000      8.6978    -98.0000     21.0072     30.3022     42.3484     85.0667      2.3740      0.0007      3.1022     23.0000
  9058.0000     44.8000      8.7000    -98.0000     20.7506     29.2965     45.8174     84.8667      2.3718      0.0031      2.9067     22.7067
  9058.5000     42.6333      8.7111    -98.0444     21.0070     28.1502     42.8710     85.0444      2.3602      0.0050      2.6133     22.5200
  9059.0000     41.1667      8.7178    -98.1778     20.8357     27.2710     40.8990     85.6000      2.3460      0.0017      2.5778     23.1867
  9059.5000     39.5667      8.7200    -98.4444     20.3927     26.8279     37.9167     86.0889      2.3424     -0.0011      2.5333     24.0933
