~Version Information
 VERS.                2.00:   CWLS log ASCII Standard -VERSION 2.00
 WRAP.                  NO:   One line per frame
~Well Information Block
#MNEM.UNIT              Data                Description
#--------- -------------------------------  -------------------------------
 STRT.F                         7800.0000:   Starting Depth
 STOP.F                        11520.0000:   Ending Depth
 STEP.F                            0.5000:   Level Spacing
 NULL.                          -999.2500:   Absent Value
 COMP.     BOGMC/PIU                     :   Company
 WELL.     KAILASTILA-3                  :   Well
 FLD .     KAILASTILA                    :   Field
 LOC .                                   :   Location
 PROV.                                   :   Province
 SRVC.                                   :   Service Company
 LIC .                                   :   License Number
 DATE.                                   :   Log Date
 UWI .                                   :   Unique Well ID
~Curve Information Block
#MNEM.UNIT       API Codes    Curve Description
#---------    -------------   -------------------------------
 DEPT.F        0   0  0  0:   Primary Index
 GR  .GAPI     0   0  0  0:   Gamma Ray
 CALI.IN       0   0  0  0:   Caliper
 SP  .MV       0   0  0  0:   Spontaneous Potential
 ILD .OHMM     0   0  0  0:   Deep Induction Standard Processed Resistivity
 SFLU.OHMM     0   0  0  0:   SFL Resistivity (Unaveraged)
 MSFL.OHMM     0   0  0  0:   Msfl Resistivity
 DT  .US/F     0   0  0  0:   Delta-T
 RHOB.G/C3     0   0  0  0:   Bulk Density
 DRHO.G/C3     0   0  0  0:   Delta Rho
 PEF .         0   0  0  0:   Photo-Electric Factor
 NPHI.PU       0   0  0  0:   Neutron Porosity
~Parameter Information Block
#MNEM.UNIT              Value             Description
#---------    -------------------------   -------------------------------
 BLI .          11565.000             :   Bottom Log Interval
 BS1 .             17.000             :   Bit Size 1
 BS2 .             12.250             :   Bit Size 2
 BS3 .               .000             :   Bit Size 3
 BSD1.           5102.000             :   Bit Size Depth 1
 BSD2.          11568.000             :   Bit Size Depth 2
 BSD3.               .000             :   Bit Size Depth 3
 CBD1.            632.000             :   Casing Bottom (Driller) 1
 CBD2.           5100.000             :   Casing Bottom (Driller) 2
 CBD3.               .000             :   Casing Bottom (Driller) 3
 CBL1.            634.000             :   Casing Bottom (Logger) 1
 CBL2.           5108.000             :   Casing Bottom (Logger) 2
 CBL3.               .000             :   Casing Bottom (Logger) 3
 CS1 .             13.375             :   Casing Size 1
 CS2 .              9.625             :   Casing Size 2
 CS3 .               .000             :   Casing Size 3
 CW1 .               .000             :   Casing Weight 1
 CW2 .               .000             :   Casing Weight 2
 CW3 .               .000             :   Casing Weight 3
 DAY .        28                      :   Date - Day
 DFD .              9.650             :   Drilling Fluid Density
 DFL .              5.200             :   Drilling Fluid Loss
 DFPH.              9.000             :   Drilling Fluid Ph
 DFT .        GEL-BENEX               :   Drilling Fluid Type
 DFV .             48.000             :   Drilling Fluid Viscosity
 DMF .        DF                      :   Drilling Measured From
 EDF .             72.000             :   Elevation Of Derrick Floor
 EGL .               .000             :   Elevation Of Ground Level
 EKB .             73.000             :   Elevation Of Kelly Bushing
 ENGI.        LEBIOKI#                :   Engineer'S Name
 EPD .               .000             :   Elevation Of Perm. Datum
 LATI.        864,663 Y N             :   Latitude
 LCC .        440                     :   Logging Company Code
 LMF .        DF                      :   Log Measured From
 LONG.        3,223,823 Y E           :   Longitude
 LUL .        PBG                     :   Logging Unit Location
 LUN .        737                     :   Logging Unit Number
 MCSS.        EMT                     :   Mud Cake Sample Source
 MCST.             70.000             :   Mud Cake Sample Temperature
 MFSS.        EMT                     :   Mud Filtrate Sample Source
 MFST.             70.000             :   Mud Filtrate Sample Temperature
 MONT.        12                      :   Date - Month
 MRT .            154.000             :   Maximum Recorded Temperature
 MSS .        FLOWLINE                :   Mud Sample Source
 MST .             68.000             :   Mud Sample Temperature
 NATI.        BANGLADESH              :   Nation
 PDAT.        MSL                     :   Permanent Datum
 R1  .        SELECTED CURVES OVER SELECTED INTERVALS AS PER PETROBANGLA:   Remark Line 1
 R2  .        SPECIFICATIONS DETAILED IN TABLE 6.:   Remark Line 2
 R3  .        DATA TAKEN FROM TAPE 183. THIS TAPE IS A SCHLUMBERGER:   Remark Line 3
 R4  .        EDIT TAPE.              :   Remark Line 4
 R5  .        MSFL TAPE DATA OFFSET FROM H/C LOG, HOWEVER ALL DIGITAL:   Remark Line 5
 R6  .        SOURCES FOUND TO BE IDENTICAL ON SLB EDIT TAPES, CURVE:   Remark Line 6
 R7  .        OUTPUT AS PER EDIT TAPES.:   Remark Line 7
 RMCS.              2.140             :   Resistivity Of Mud Cake Sample
 RMFS.              5.350             :   Resistivity Of Mud Filtrate Sample
 RMS .              3.480             :   Resistivity Of Mud Sample
 RUN .        2                       :   Run Number
 STAT.        BANGLADESH              :   State Or Province
 TCS .        14:00/28                :   Time Circulation Stopped
 TDD .          11568.000             :   Total Depth - Driller
 TDL .          11572.000             :   Total Depth - Logger
 TLAB.        23:29/28                :   Time Logger At Bottom
 TLI .           5108.000             :   Top Log Interval
 TOOL.        COMPOSITE               :   Epl Of All Possible Sensors
 WITN.        ELAHI                   :   Witness' Name
 YEAR.        88                      :   Date - Year
#  Curve Data
~A   DEPT        GR          CALI        SP          ILD         SFLU        MSFL        DT          RHOB        DRHO        PEF         NPHI
# ...
 11244.0000     81.7667     10.4867    -41.6222     11.8919     12.1007      9.1981     74.2222      2.5409      0.0710      3.3333     25.3467
 11244.5000     81.6667     10.2689    -41.7111     11.9041     12.3635      9.6219     72.6667      2.5571      0.0812      3.6000     25.5733
 11245.0000     80.3000      9.9667    -41.8889     11.9041     12.5419      9.8006     73.8222      2.5618      0.0787      3.4311     25.7200
 11245.5000     77.6000      9.9333    -41.3333     11.8798     12.0512      8.9200     73.9556      2.5251      0.0406      3.3689     25.2667
 11246.0000     75.1000     10.1422    -41.4667     11.8919     12.1627      9.4081     73.0444      2.5102      0.0212      3.2000     24.5200
 11246.5000     76.1000     10.3200    -41.2000     12.1752     11.9774     10.2101     72.5778      2.5089      0.0152      3.2400     25.1200
 11247.0000     76.6000     10.2333    -41.4667     12.2001     12.2502      9.9625     73.6667      2.5082      0.0110      3.1644     24.3600
 11247.5000     78.5000     10.4600    -41.0000     12.2627     12.3762      9.8710     71.2667      2.5189      0.0133      3.1911     24.8000
 11248.0000     76.7667     10.7933    -41.2000     12.3762     12.5548     10.0856     73.4000      2.5287      0.0120      3.3956     23.9600
 11248.5000     73.8000     10.2133    -40.9556     12.3635     12.9995     10.5937     71.1333      2.5393      0.0168      3.4978     25.7200
 11249.0000     78.3333     10.3711    -40.9778     12.2752     13.5288     11.1266     73.4000      2.5291      0.0214      3.5378     24.8800
 11249.5000     80.3000      9.8667    -41.2444     12.3762     13.8650     10.7902     70.3333      2.5218      0.0273      3.2533     25.9600
 11250.0000     77.7000     10.1467    -41.5111     12.4269     13.8508     11.1039     73.9333      2.5020      0.0237      3.4578     25.1200
 11250.5000     80.8000      9.9489    -41.7333     12.3131     13.5702     10.0855     73.1333      2.5073      0.0240      3.5111     26.9467
 11251.0000     79.9667     10.5800    -42.6667     11.6153     13.3635     10.4965     73.5333      2.4947      0.0130      3.6400     27.4400
 11251.5000     82.3000     10.4489    -40.8444     12.4018     13.0127     11.3225     72.9556      2.5007      0.0140      3.4267     27.7333
 11252.0000     78.6000     10.1133    -40.2667     12.4397     12.9727     11.7110     72.3778      2.5022      0.0137      3.2400     26.7600
 11252.5000     80.4000     10.1511    -40.7556     12.3256     13.2275     12.1255     73.8667      2.5129      0.0138      3.3111     25.4400
 11253.0000     76.9000     10.3067    -41.3333     12.2752     13.4046     12.1627     71.7333      2.5176      0.0102      3.0933     25.8667
 11253.5000     79.2000     10.2644    -40.9111     12.4269     13.5009     11.9046     72.0000      2.5022      0.0046      3.1733     26.2400
 11254.0000     75.7000     10.3711    -40.9111     12.2376     13.2817     10.5088     73.4889      2.4978      0.0036      3.0667     25.4800
 11254.5000     79.5000      9.5733    -40.9778     12.3382     13.0526      9.8408     73.5778      2.4969      0.0076      3.2000     24.1867
 11255.0000     76.0667      9.7800    -41.0222     12.5035     13.3771     10.9235     74.1555      2.5087      0.0109      3.2222     24.0533
 11255.5000     74.1000      9.6822    -40.4667     12.2376     13.1330     10.8345     71.7333      2.5167      0.0170      3.3244     24.9067
 11256.0000     72.6000     10.2311    -40.2667     12.5035     13.2953     11.6510     73.2667      2.5196      0.0197      3.3467     25.3600
 11256.5000     73.0000     10.2400    -40.3333     12.3635     13.1734     11.3335     72.2444      2.5078      0.0128      3.2489     25.1467
 11257.0000     74.9000      9.7822    -40.3778     12.2627     13.6258     12.1627     71.6889      2.5058      0.0071      3.1822     24.9067
 11257.5000     72.8000      9.6733    -40.5111     12.6970     13.4046     11.1266     75.4667      2.5118      0.0067      3.1644     24.8000
 11258.0000     75.7000      9.7822    -40.5778     12.7620     14.3564     11.5088     70.2667      2.5273      0.0090      3.1022     24.0267
 11258.5000     73.7667      9.7711    -41.1333     13.2140     14.4739     11.3451     72.9556      2.5304      0.0133      3.0800     23.8133
 11259.0000     73.7667      9.5933    -41.7556     13.2139     14.4591     12.2001     73.2667      2.5316      0.0090      3.1156     23.7600
 11259.5000     74.2667     10.3533    -40.2667     13.1869     14.1807     10.8567     73.2000      2.5436      0.0132      3.1333     24.7600
 11260.0000     79.9667      9.7867    -40.2444     13.1330     14.8490     11.4164     73.2222      2.5487      0.0158      3.0978     24.0000
 11260.5000     81.3333     10.4267    -40.4444     13.1734     14.6228     14.0939     72.2000      2.5547      0.0290      3.0800     24.6933
 11261.0000     78.0333     10.0800    -40.6000     13.0927     15.1716     12.6579     72.3778      2.5456      0.0240      3.1867     25.0133
 11261.5000     73.3000     10.0311    -40.1333     13.1599     14.2243     13.0126     72.6444      2.5260      0.0173      3.3644     25.1600
 11262.0000     75.3667     10.1444    -40.3778     13.1464     14.4443     12.4532     70.9333      2.5160      0.0199      3.4933     24.7333
 11262.5000     79.6000     10.6533    -40.4000     13.0927     13.8366     10.8917     73.0000      2.5158      0.0337      3.3467     24.0800
 11263.0000     78.3333     10.0978    -39.9111     13.1196     14.4443     10.7243     70.8667      2.5231      0.0389      3.4267     24.4000
 11263.5000     74.5333      9.9044    -39.8000     13.1061     14.2535     11.5797     73.6667      2.5313      0.0401      3.2400     24.6000
 11264.0000     71.2000     10.3533    -40.0000     12.9727     14.1807     11.4618     72.6889      2.5236      0.0326      3.4933     24.0133
 11264.5000     74.6333     10.1444    -39.8889     13.0393     14.2388     11.1609     70.8000      2.5187      0.0257      3.5911     24.0267
 11265.0000     77.2000      9.9933    -39.6667     13.0793     13.9218     11.1381     73.0000      2.5096      0.0208      3.6133     25.5600
 11265.5000     76.8667     10.2400    -40.1556     13.0927     14.3559     11.7232     70.4667      2.5082      0.0202      3.5911     25.1600
 11266.0000     75.6000     10.1133    -40.1778     13.2410     14.1372     12.2001     71.6222      2.5173      0.0333      3.5644     25.4800
 11266.5000     76.6000     10.3533    -40.8222     13.3225     14.3559     11.0925     72.1555      2.5013      0.0228      3.5467     24.6400
 11267.0000     75.1000     10.1489    -40.7333     13.4046     14.0939     11.2067     73.8000      2.5027      0.0178      3.5644     25.3600
 11267.5000     75.9000     10.0089    -39.3333     13.3909     14.4444     11.8197     70.6000      2.4980      0.0137      3.3867     23.4800
 11268.0000     74.7000      9.9000    -39.0667     13.1599     14.7430     12.7751     73.4000      2.5013      0.0160      3.4844     24.0800
 11268.5000     75.5000     10.0800    -39.5111     13.1330     14.7128     12.4398     70.6000      2.5080      0.0197      3.4933     23.5867
 11269.0000     74.8333      9.9067    -39.5333     13.3361     14.8186     12.0147     73.7333      2.5036      0.0147      3.4444     25.1600
 11269.5000     78.3000     10.2933    -39.5778     13.2139     14.3559     11.0585     71.2889      2.5273      0.0290      3.4311     24.6400
 11270.0000     74.9000      9.6600    -39.6667     13.3635     14.4887     11.1837     71.1111      2.5193      0.0184      3.3689     24.7600
 11270.5000     78.4667      9.9578    -39.4889     13.4183     14.1807     11.1380     71.3555      2.5229      0.0131      3.3378     24.6533
 11271.0000     78.8667     10.0533    -39.2889     13.3909     14.4887     11.0925     72.0222      2.5242      0.0126      3.3156     24.3200
 11271.5000     79.3000      9.9467    -39.0222     13.2953     14.3853     11.3336     70.2667      2.5400      0.0254      3.4267     22.8400
