~Version Information
 VERS.                2.00:   CWLS log ASCII Standard -VERSION 2.00
 WRAP.                  NO:   One line per frame
~Well Information Block
#MNEM.UNIT              Data                Description
#--------- -------------------------------  -------------------------------
 STRT.F                         7800.0000:   Starting Depth
 STOP.F                        11520.0000:   Ending Depth
 STEP.F                            0.5000:   Level Spacing
 NULL.                          -999.2500:   Absent Value
 COMP.     BOGMC/PIU                     :   Company
 WELL.     KAILASTILA-3                  :   Well
 FLD .     KAILASTILA                    :   Field
 LOC .                                   :   Location
 PROV.                                   :   Province
 SRVC.                                   :   Service Company
 LIC .                                   :   License Number
 DATE.                                   :   Log Date
 UWI .                                   :   Unique Well ID
~Curve Information Block
#MNEM.UNIT       API Codes    Curve Description
#---------    -------------   -------------------------------
 DEPT.F        0   0  0  0:   Primary Index
 GR  .GAPI     0   0  0  0:   Gamma Ray
 CALI.IN       0   0  0  0:   Caliper
 SP  .MV       0   0  0  0:   Spontaneous Potential
 ILD .OHMM     0   0  0  0:   Deep Induction Standard Processed Resistivity
 SFLU.OHMM     0   0  0  0:   SFL Resistivity (Unaveraged)
 MSFL.OHMM     0   0  0  0:   Msfl Resistivity
 DT  .US/F     0   0  0  0:   Delta-T
 RHOB.G/C3     0   0  0  0:   Bulk Density
 DRHO.G/C3     0   0  0  0:   Delta Rho
 PEF .         0   0  0  0:   Photo-Electric Factor
 NPHI.PU       0   0  0  0:   Neutron Porosity
~Parameter Information Block
#MNEM.UNIT              Value             Description
#---------    -------------------------   -------------------------------
 BLI .          11565.000             :   Bottom Log Interval
 BS1 .             17.000             :   Bit Size 1
 BS2 .             12.250             :   Bit Size 2
 BS3 .               .000             :   Bit Size 3
 BSD1.           5102.000             :   Bit Size Depth 1
 BSD2.          11568.000             :   Bit Size Depth 2
 BSD3.               .000             :   Bit Size Depth 3
 CBD1.            632.000             :   Casing Bottom (Driller) 1
 CBD2.           5100.000             :   Casing Bottom (Driller) 2
 CBD3.               .000             :   Casing Bottom (Driller) 3
 CBL1.            634.000             :   Casing Bottom (Logger) 1
 CBL2.           5108.000             :   Casing Bottom (Logger) 2
 CBL3.               .000             :   Casing Bottom (Logger) 3
 CS1 .             13.375             :   Casing Size 1
 CS2 .              9.625             :   Casing Size 2
 CS3 .               .000             :   Casing Size 3
 CW1 .               .000             :   Casing Weight 1
 CW2 .               .000             :   Casing Weight 2
 CW3 .               .000             :   Casing Weight 3
 DAY .        28                      :   Date - Day
 DFD .              9.650             :   Drilling Fluid Density
 DFL .              5.200             :   Drilling Fluid Loss
 DFPH.              9.000             :   Drilling Fluid Ph
 DFT .        GEL-BENEX               :   Drilling Fluid Type
 DFV .             48.000             :   Drilling Fluid Viscosity
 DMF .        DF                      :   Drilling Measured From
 EDF .             72.000             :   Elevation Of Derrick Floor
 EGL .               .000             :   Elevation Of Ground Level
 EKB .             73.000             :   Elevation Of Kelly Bushing
 ENGI.        LEBIOKI#                :   Engineer'S Name
 EPD .               .000             :   Elevation Of Perm. Datum
 LATI.        864,663 Y N             :   Latitude
 LCC .        440                     :   Logging Company Code
 LMF .        DF                      :   Log Measured From
 LONG.        3,223,823 Y E           :   Longitude
 LUL .        PBG                     :   Logging Unit Location
 LUN .        737                     :   Logging Unit Number
 MCSS.        EMT                     :   Mud Cake Sample Source
 MCST.             70.000             :   Mud Cake Sample Temperature
 MFSS.        EMT                     :   Mud Filtrate Sample Source
 MFST.             70.000             :   Mud Filtrate Sample Temperature
 MONT.        12                      :   Date - Month
 MRT .            154.000             :   Maximum Recorded Temperature
 MSS .        FLOWLINE                :   Mud Sample Source
 MST .             68.000             :   Mud Sample Temperature
 NATI.        BANGLADESH              :   Nation
 PDAT.        MSL                     :   Permanent Datum
 R1  .        SELECTED CURVES OVER SELECTED INTERVALS AS PER PETROBANGLA:   Remark Line 1
 R2  .        SPECIFICATIONS DETAILED IN TABLE 6.:   Remark Line 2
 R3  .        DATA TAKEN FROM TAPE 183. THIS TAPE IS A SCHLUMBERGER:   Remark Line 3
 R4  .        EDIT TAPE.              :   Remark Line 4
 R5  .        MSFL TAPE DATA OFFSET FROM H/C LOG, HOWEVER ALL DIGITAL:   Remark Line 5
 R6  .        SOURCES FOUND TO BE IDENTICAL ON SLB EDIT TAPES, CURVE:   Remark Line 6
 R7  .        OUTPUT AS PER EDIT TAPES.:   Remark Line 7
 RMCS.              2.140             :   Resistivity Of Mud Cake Sample
 RMFS.              5.350             :   Resistivity Of Mud Filtrate Sample
 RMS .              3.480             :   Resistivity Of Mud Sample
 RUN .        2                       :   Run Number
 STAT.        BANGLADESH              :   State Or Province
 TCS .        14:00/28                :   Time Circulation Stopped
 TDD .          11568.000             :   Total Depth - Driller
 TDL .          11572.000             :   Total Depth - Logger
 TLAB.        23:29/28                :   Time Logger At Bottom
 TLI .           5108.000             :   Top Log Interval
 TOOL.        COMPOSITE               :   Epl Of All Possible Sensors
 WITN.        ELAHI                   :   Witness' Name
 YEAR.        88                      :   Date - Year
#  Curve Data
~A   DEPT        GR          CALI        SP          ILD         SFLU        MSFL        DT          RHOB        DRHO        PEF         NPHI
# ...
  9760.0000     44.5000      9.1711    -79.1333      7.4193      9.0970     14.4598     78.5778      2.4747      0.0112      3.3822     22.2133
  9760.5000     44.8000      9.7000    -77.1111      7.4193     12.0995     21.8306     78.2889      2.4684      0.0062      3.4578     20.9067
  9761.0000     44.5667      9.3044    -75.3111      7.4193     14.7581     32.1042     77.6000      2.4887      0.0003      3.4489     19.7200
  9761.5000     48.6333      9.1800    -73.8667      7.5573     12.4959     15.1250     76.2000      2.4978     -0.0054      3.2000     21.2133
  9762.0000     49.6333      9.2511    -74.4000      7.7372     10.5846     16.2494     79.2222      2.5056     -0.0074      3.2889     22.6533
  9762.5000     55.1000      9.3267    -73.9778      7.7293     10.1165     16.9447     80.0000      2.5204     -0.0018      3.2800     22.5733
  9763.0000     51.8333      9.3667    -73.3778      7.6506     10.8901     20.4659     79.0222      2.5298      0.0062      3.2800     20.5200
  9763.5000     50.1333      9.4556    -71.2222      7.6663     10.1379     18.2546     77.2667      2.5356      0.0129      3.1733     20.8400
  9764.0000     46.4000      9.5244    -69.6445      7.6741      9.7907     16.0835     78.6667      2.5527      0.0297      3.1778     21.1333
  9764.5000     48.0667      9.6222    -68.4444      7.6899      9.2832     13.9646     79.2444      2.5420      0.0266      3.4000     22.4800
  9765.0000     51.3000      9.7200    -68.2222      7.6977      9.4849     14.6683     80.3111      2.5513      0.0487      3.3333     22.1200
  9765.5000     49.9667      9.8422    -68.0667      7.7849      9.9318     15.5488     79.9556      2.5453      0.0471      3.3422     21.9867
  9766.0000     48.9000      9.8711    -66.8222      7.8811      9.4852     13.7552     75.2000      2.5476      0.0527      3.0800     21.5200
  9766.5000     48.7000     10.1000    -65.3333      7.9785      9.0025     12.0882     77.5556      2.5202      0.0316      3.0133     22.4800
  9767.0000     51.1667     10.3000    -65.9111      8.0276      9.3121     12.4782     78.7333      2.5047      0.0213      3.0711     22.5067
  9767.5000     51.7667     10.0467    -66.9778      8.1019     10.0655     13.4885     80.4000      2.5184      0.0274      3.2622     21.8667
  9768.0000     48.8000     10.0711    -67.2444      8.1518     10.4319     15.1250     81.8222      2.5284      0.0391      3.6222     21.3600
  9768.5000     47.1000     10.0978    -67.2889      8.2020      9.9831     13.9368     77.6000      2.5538      0.0660      3.7378     22.0000
  9769.0000     48.4333     10.1289    -65.0000      8.3887      9.6020     13.8225     77.7778      2.5724      0.0877      3.7644     22.8800
  9769.5000     52.9667     10.0111    -65.8222      8.3374      9.8711     13.1330     78.2667      2.5731      0.0803      3.5467     22.4933
  9770.0000     54.0000      9.9911    -66.9111      8.4491     10.1477     13.5709     80.5556      2.5624      0.0492      3.3644     21.9333
  9770.5000     52.3333     10.0511    -66.9556      8.4664     10.3680     15.5488     80.7333      2.5353      0.0127      3.3200     21.8933
  9771.0000     50.2333     10.1133    -66.0667      8.4491     10.0546     14.1807     80.3333      2.5440      0.0083      3.3200     22.4800
  9771.5000     48.1000     10.1911    -66.6000      8.4404     10.2835     15.1716     77.6222      2.5400      0.0141      3.3200     21.8400
  9772.0000     48.2667     10.4733    -66.1111      8.4837     10.3363     14.2544     76.5333      2.5556      0.0343      3.4000     21.0933
  9772.5000     46.8000     10.2200    -65.6889      8.5447     10.2520     13.3361     78.4222      2.5687      0.0308      3.2933     20.3600
  9773.0000     50.1333     10.2978    -65.7778      8.5447     10.0443     15.0787     78.7556      2.5580      0.0159      3.4533     20.6400
  9773.5000     52.7667     10.4089    -66.0000      8.5710      9.8106     14.3119     79.2222      2.5593      0.0091      3.3600     20.5200
  9774.0000     54.2000     10.5044    -65.8667      8.3973     10.1477     15.7409     77.5556      2.5571      0.0089      3.4400     20.6933
  9774.5000     53.1667     10.5667    -66.0000      8.4318     10.3363     15.4223     76.9111      2.5676      0.0114      3.2933     22.1467
  9775.0000     50.7333     10.6578    -65.7556      8.5098     10.1997     14.6228     76.8000      2.5758      0.0139      3.3333     22.4800
  9775.5000     50.1667     10.7200    -65.6889      8.5710     10.0649     15.5488     79.4444      2.5813      0.0214      3.3022     22.8400
  9776.0000     49.1000     10.8156    -65.0000      8.5535      9.8710     14.2544     80.8000      2.5680      0.0313      3.3867     22.3733
  9776.5000     49.0333     10.9222    -65.9333      8.4664      9.9624     13.9504     78.8667      2.5671      0.0567      3.2267     22.0800
  9777.0000     50.8667     11.1800    -65.0222      8.4491      9.9420     13.4063     79.2000      2.5387      0.0526      3.3067     22.3600
  9777.5000     52.8000     11.0400    -62.8667      8.4145      9.7607     10.4961     78.7333      2.5316      0.0429      3.2533     22.1200
  9778.0000     51.9333     11.1622    -62.4667      8.4924      9.1702     11.1613     78.0444      2.5187      0.0190      3.3733     22.7600
  9778.5000     50.5667     11.1733    -63.0000      8.4491      9.0951     11.4033     80.2667      2.5342      0.0214      3.4178     22.0400
  9779.0000     49.8667     11.1889    -63.4667      8.4232      8.9200     11.0925     79.6667      2.5500      0.0226      3.2711     22.6000
  9779.5000     52.5000     11.2556    -62.9778      8.3118      9.2075     11.7589     79.2000      2.5491      0.0142      3.0711     22.5867
  9780.0000     52.1667     11.3689    -62.7333      8.3802      9.1981      9.3979     79.6000      2.5573      0.0098      3.0133     21.9200
  9780.5000     50.6000     11.3800    -63.1778      8.3716      9.3022     12.0955     78.9111      2.5569      0.0059      3.2133     22.7200
  9781.0000     48.6667     11.4089    -63.0889      8.3459      9.3500     12.6579     77.6444      2.5671      0.0058      3.5022     22.0800
  9781.5000     48.3333     11.4622    -62.6222      8.3374      9.5628     12.6063     77.1778      2.5680      0.0030      3.8133     21.3867
  9782.0000     48.2000     11.4933    -62.7111      8.3545      9.5726     13.1335     76.6889      2.5689      0.0067      3.7200     20.9600
  9782.5000     50.8333     11.4444    -62.8000      8.3887      9.5726     13.7519     75.5333      2.5398      0.0049      3.5689     21.0267
  9783.0000     54.3333     11.4200    -62.6889      8.3630      9.3980     12.2652     76.3333      2.5253      0.0109      3.3378     22.4800
  9783.5000     56.7000     11.4600    -62.3556      8.4318      8.9749     11.1266     79.6667      2.5300      0.0186      3.3378     23.5733
  9784.0000     56.4333     11.3867    -62.4889      8.4577      9.0394     12.5035     76.2667      2.5542      0.0323      3.4533     24.1200
  9784.5000     51.0667     11.3756    -63.4667      8.4664      8.5185     10.8901     79.4000      2.5598      0.0274      3.5556     25.0000
  9785.0000     50.6333     11.3422    -64.7333      8.4664      8.9293     11.7238     78.8222      2.5393      0.0081      3.5689     23.5333
  9785.5000     49.4667     11.3467    -63.1111      8.4664      9.0951     12.7751     75.9333      2.5440      0.0012      3.6533     23.2267
  9786.0000     53.2333     11.2889    -62.4000      8.4404      9.5240     12.5934     78.0667      2.5413     -0.0033      3.4978     21.8000
  9786.5000     54.4667     11.2200    -63.2889      8.4577      9.7806     13.8366     77.6000      2.5493      0.0094      3.4356     21.9867
  9787.0000     55.9000     11.2133    -63.9333      8.6414      9.5629     12.8933     78.9333      2.5673      0.0424      3.2933     21.0267
  9787.5000     53.7000     11.2422    -63.3333      8.6326      9.5824     13.3361     78.1778      2.5787      0.0677      3.3600     20.6000
